[

  {
  "Id": 11405,
  "DealerSN": "D2117",
  "DisName": "北京鹏奥贸易有限公司",
  "CityID": 11405,
  "Tel": "010-62856619",
  "Sales_tel": "010-62881668\/010-88461126",
  "open_service": 1,
  "Lng": " 116.239109",
  "Lat": "39.952913",
  "Address": "北京市海淀区巨山路99-4号（合盛汽车园）",
  "Dealer_type": 1,
  "DisSort": "4s店"
},
{
"Id": 11407,
"DealerSN": "D2144",
"DisName": "北京燕盛隆汽车维修有限公司",
"CityID": 11405,
"Tel": "010-67477263",
"Sales_tel": "010-67477998",
"open_service": 0,
"Lng": "116.489591",
"Lat": "39.853712",
"Address": "北京市朝阳区十八里店乡十八里店村876号",
"Dealer_type": 2,
"DisSort": "4s店"
},
{
"Id": 11408,
"DealerSN": "D2120",
"DisName": "北京胜鸿都汽车销售服务有限公司",
"CityID": 11405,
"Tel": "010-64391885\/010-64392288",
"Sales_tel": "01064392288\/1135\/1136\/1137\/1138",
"open_service": 0,
"Lng": "116.486409",
"Lat": "40.019577",
"Address": "北京市朝阳区利泽东园306号",
"Dealer_type": 1,
"DisSort": "4s店"
},
{
"Id": 11409,
"DealerSN": "D2121",
"DisName": "北京博伟恒业特约销售服务店",
"CityID": 11405,
"Tel": "010-67605001",
"Sales_tel": "010-67605012",
"open_service": 0,
"Lng": "116.459601",
"Lat": "39.869053",
"Address": "北京市朝阳区十里河白墙子266号",
"Dealer_type": 1,
"DisSort": "4s店"
},
{
"Id": 11410,
"DealerSN": "D2122",
"DisName": "北京瑞通嘉业汽车销售服务有限公司",
"CityID": 11405,
"Tel": "010-65046995\/010-65046993",
"Sales_tel": "010-85236880\/010-85236992",
"open_service": 0,
"Lng": "116.462989",
"Lat": "39.936837",
"Address": "北京市工体北路6号凯富大厦首层",
"Dealer_type": 2,
"DisSort": "4s店"
},
{
"Id": 11411,
"DealerSN": "D2123",
"DisName": "北京冀财奥汽车贸易有限公司",
"CityID": 11405,
"Tel": "010-67861991",
"Sales_tel": "010-67888185\/67886186",
"open_service": 0,
"Lng": "116.512796",
"Lat": "39.819056",
"Address": "北京市北京经济技术开发区东环北路北1号西侧",
"Dealer_type": 2,
"DisSort": "4s店"
},
{
"Id": 11412,
"DealerSN": "D2125",
"DisName": "北京通铭伟业汽车销售有限公司",
"CityID": 11405,
"Tel": "010-62915559-116\/117\/118",
"Sales_tel": "010-82412454\/62915559",
"open_service": 0,
"Lng": "116.364977",
"Lat": "40.025076",
"Address": "北京市朝阳区德外花虎沟99号",
"Dealer_type": 1,
"DisSort": "4s店"
},
{
"Id": 11413,
"DealerSN": "D2126",
"DisName": "北京波士山汽车销售服务有限公司",
"CityID": 11405,
"Tel": "010-85776115",
"Sales_tel": "010-85773818",
"open_service": 0,
"Lng": "116.537251",
"Lat": "39.915105",
"Address": "朝阳区兴隆庄甲3号",
"Dealer_type": 2,
"DisSort": "4s店"
},
{
"Id": 11415,
"DealerSN": "D2129",
"DisName": "北京欧之杰汽车贸易有限公司",
"CityID": 11405,
"Tel": "010-69980372",
"Sales_tel": "010-69960062",
"open_service": 0,
"Lng": "117.120434",
"Lat": "40.112184",
"Address": "北京市平谷区平三路西侧，兴业路35号",
"Dealer_type": 1,
"DisSort": "4s店"
},
{
"Id": 11416,
"DealerSN": "D2130",
"DisName": "北京东方金硕汽车销售服务有限公司",
"CityID": 11405,
"Tel": "010-82403055",
"Sales_tel": "010-82402042",
"open_service": 0,
"Lng": "116.25726",
"Lat": "40.056312",
"Address": "北京市海淀区西北旺镇百旺绿谷汽车园F2-5号",
"Dealer_type": 1,
"DisSort": "4s店"
},
{
"Id": 11417,
"DealerSN": "D2131",
"DisName": "北京安瑞迪商贸有限责任公司",
"CityID": 11405,
"Tel": "010－69099012",
"Sales_tel": "010-69099010\/010-69099011",
"open_service": 1,
"Lng": "116.801873",
"Lat": "40.361982",
"Address": "北京市密云县十里堡镇十里堡村北100米",
"Dealer_type": 1,
"DisSort": "4s店"
},
{
"Id": 11418,
"DealerSN": "D2132",
"DisName": "北京连振高超汽车销售有限公司",
"CityID": 11405,
"Tel": "010-80353333",
"Sales_tel": "010-80356666",
"open_service": 0,
"Lng": "116.188259",
"Lat": "39.757146",
"Address": "北京市房山区长阳镇北广阳城环路5号",
"Dealer_type": 1,
"DisSort": "4s店"
},
{
"Id": 11419,
"DealerSN": "D2133",
"DisName": "北京天乐国裕经贸发展有限公司",
"CityID": 11405,
"Tel": "010-80101818",
"Sales_tel": "010-80101919\/010-80102020",
"open_service": 0,
"Lng": "116.229339",
"Lat": "40.215953",
"Address": "北京市昌平区昌南环岛西南侧",
"Dealer_type": 1,
"DisSort": "4s店"
},
{
"Id": 11420,
"DealerSN": "D2134",
"DisName": "北京大通佳信汽车销售服务有限公司",
"CityID": 11405,
"Tel": "010-60216712",
"Sales_tel": "010-60216671",
"open_service": 0,
"Lng": "116.370614",
"Lat": "39.765383",
"Address": "北京市大兴区经济开发区金苑路31号",
"Dealer_type": 1,
"DisSort": "4s店"
},
{
"Id": 11421,
"DealerSN": "D2135",
"DisName": "北京北方程远汽车销售服务有限公司",
"CityID": 11405,
"Tel": "010-88925721",
"Sales_tel": "010-88928682",
"open_service": 0,
"Lng": "116.191776",
"Lat": "39.922458",
"Address": "北京市石景山区古城大街首钢特钢院内北京国际汽车服务园区F区12号",
"Dealer_type": 1,
"DisSort": "4s店"
},
{
"Id": 11422,
"DealerSN": "D2136",
"DisName": "北京庞大伟业汽车销售服务有限责任公司",
"CityID": 11405,
"Tel": "010-87393337",
"Sales_tel": "010-87393338",
"open_service": 0,
"Lng": "116.562204",
"Lat": "39.875394",
"Address": "北京市朝阳区王四营乡五方桥东道口村柏阳景园小区东南",
"Dealer_type": 1,
"DisSort": "4s店"
},
{
"Id": 11423,
"DealerSN": "D2138",
"DisName": "北京成禄翔汽车销售服务有限公司",
"CityID": 11405,
"Tel": "010-89496655",
"Sales_tel": "010-89496655",
"open_service": 0,
"Lng": "116.62351",
"Lat": "40.128199",
"Address": "北京市顺义区南法信镇东支路4号",
"Dealer_type": 1,
"DisSort": "4s店"
},
{
"Id": 11424,
"DealerSN": "D2139",
"DisName": "北京华阳顺通汽车销售服务有限公司",
"CityID": 11405,
"Tel": "010-89609999",
"Sales_tel": "010-89608960",
"open_service": 0,
"Lng": "116.653805",
"Lat": "40.329309",
"Address": "北京市怀柔区开放东路12号1栋",
"Dealer_type": 1,
"DisSort": "4s店"
},
{
"Id": 11426,
"DealerSN": "D2143",
"DisName": "北京中农通兴汽车销售有限公司",
"CityID": 11405,
"Tel": "010-89042555",
"Sales_tel": "010-89042525",
"open_service": 0,
"Lng": "116.473516",
"Lat": "39.81969",
"Address": "北京市大兴区三台山路亦庄桥北1000米处",
"Dealer_type": 1,
"DisSort": "4s店"
},
{
"Id": 12337,
"DealerSN": "D2145",
"DisName": "北京京现汽车维修服务有限公司",
"CityID": 11405,
"Tel": "010-82871650",
"Sales_tel": "010-62558383",
"open_service": 0,
"Lng": "116.344925",
"Lat": "39.983838",
"Address": "海淀区知春路甲18号",
"Dealer_type": 1,
"DisSort": "4s店"
},
{
"Id": 12407,
"DealerSN": "S2123",
"DisName": "北京凯翔风汽车销售服务有限公司",
"CityID": 11405,
"Tel": "010—88992391",
"Sales_tel": "",
"open_service": 0,
"Lng": "116.11791666666667",
"Lat": "39.93636111111111",
"Address": "北京市石景山区双峪路24号",
"Dealer_type": 4,
"DisSort": "维修站"
},
{
"Id": 12408,
"DealerSN": "S2125",
"DisName": "北京福润汽车修理有限公司",
"CityID": 11405,
"Tel": "010－6918803",
"Sales_tel": "",
"open_service": 0,
"Lng": "116.00102777777778",
"Lat": "40.43402777777778",
"Address": "北京市延庆县开发区双杏街6号",
"Dealer_type": 4,
"DisSort": "维修站"
},
{
"Id": 12409,
"DealerSN": "S2131",
"DisName": "中宇汽车服务中心",
"CityID": 11405,
"Tel": "010－84812390",
"Sales_tel": "",
"open_service": 0,
"Lng": "116.41277777777778",
"Lat": "40.06122222222222",
"Address": "北京市昌平区东小口镇中滩村393号",
"Dealer_type": 4,
"DisSort": "维修站"
},
{
"Id": 12410,
"DealerSN": "S2132",
"DisName": "北京京宇汽车服务有限公司",
"CityID": 11405,
"Tel": "010－63449823",
"Sales_tel": "",
"open_service": 0,
"Lng": "116.34636111111111",
"Lat": "39.89380555555555",
"Address": "北京市广安门外天宁寺前街8号",
"Dealer_type": 4,
"DisSort": "维修站"
},
{
"Id": 12411,
"DealerSN": "S2135",
"DisName": "北京鸿都瑞通汽车销售服务有限公司",
"CityID": 11405,
"Tel": "010-65686666",
"Sales_tel": "",
"open_service": 0,
"Lng": "116.45166666666667",
"Lat": "40.02044444444444",
"Address": "北京市朝阳区来广营西路甲9号",
"Dealer_type": 4,
"DisSort": "维修站"
},
{
"Id": 12412,
"DealerSN": "S2165",
"DisName": "北京民新昌达汽车销售服务有限公司",
"CityID": 11405,
"Tel": "010-63057778",
"Sales_tel": "",
"open_service": 0,
"Lng": "116.34050277777777",
"Lat": "39.86548611111111",
"Address": "丰台区菜户营东街乙168号",
"Dealer_type": 4,
"DisSort": "维修站"
},
{
"Id": 12413,
"DealerSN": "S2167",
"DisName": "北京瑞通嘉业汽车维修服务有限公司",
"CityID": 11405,
"Tel": "010-64393200",
"Sales_tel": "",
"open_service": 0,
"Lng": "116.44918333333334",
"Lat": "39.98213888888889",
"Address": "北京市朝阳区望京桥十字口甲39号",
"Dealer_type": 4,
"DisSort": "维修站"
},
{
"Id": 12414,
"DealerSN": "S2168",
"DisName": "北京华安众信汽车修理有限公司(政采车辆专修)",
"CityID": 11405,
"Tel": "010-89368900",
"Sales_tel": "",
"open_service": 0,
"Lng": "116.0874",
"Lat": "39.73629444444445",
"Address": "北京市房山区阎村镇张庄村委会北360米",
"Dealer_type": 4,
"DisSort": "维修站"
},
{
"Id": 12426,
"DealerSN": "S2171",
"DisName": "北京市汇友汽车服务有限公司",
"CityID": 11405,
"Tel": "010-63451171",
"Sales_tel": "",
"open_service": 0,
"Lng": "116.29036111111111",
"Lat": "39.80519722222222",
"Address": "北京市丰台区郭公庄709号",
"Dealer_type": 4,
"DisSort": "维修站"
},
{
"Id": 12427,
"DealerSN": "S2170",
"DisName": "北京鸿都汽车集团有限公司",
"CityID": 11405,
"Tel": "010-63526666",
"Sales_tel": "",
"open_service": 0,
"Lng": "116.34970555555556",
"Lat": "39.85171944444444",
"Address": "北京市南三环西路33号",
"Dealer_type": 4,
"DisSort": "维修站"
},
{
"Id": 11428,
"DealerSN": "D2218",
"DisName": "上海中创汽车销售有限公司",
"CityID": 12207,
"Tel": "021-52751507",
"Sales_tel": "021-52787878",
"open_service": 0,
"Lng": "121.369249",
"Lat": "31.237533",
"Address": "上海市普陀区云岭西路583号",
"Dealer_type": 2,
"DisSort": "4s店"
},
{
"Id": 11429,
"DealerSN": "D2220",
"DisName": "上海现峰汽车销售服务有限公司",
"CityID": 12207,
"Tel": "021-56887773",
"Sales_tel": "021-56888800",
"open_service": 0,
"Lng": "121.412327",
"Lat": "31.191634",
"Address": "上海市宝山区江杨南路980号",
"Dealer_type": 1,
"DisSort": "4s店"
},
{
"Id": 11431,
"DealerSN": "D2228",
"DisName": "上海金现汽车销售服务有限公司",
"CityID": 12207,
"Tel": "021-37568680",
"Sales_tel": "021-37568655\/37568656",
"open_service": 0,
"Lng": "121.455254",
"Lat": "30.952426",
"Address": "上海市奉贤区沪杭公路1585号",
"Dealer_type": 1,
"DisSort": "4s店"
},
{
"Id": 11432,
"DealerSN": "D2231",
"DisName": "上海联诚汽车销售有限公司",
"CityID": 12207,
"Tel": "021-58147617",
"Sales_tel": "021-58141000",
"open_service": 0,
"Lng": "121.59583",
"Lat": "31.062397",
"Address": "上海市浦东新区沪南路5191号-5",
"Dealer_type": 1,
"DisSort": "4s店"
},
{
"Id": 11433,
"DealerSN": "D2232",
"DisName": "上海轿辰汽车销售服务有限公司",
"CityID": 12207,
"Tel": "021-67222999",
"Sales_tel": "021-67223333",
"open_service": 0,
"Lng": "121.305737",
"Lat": "30.73622",
"Address": "上海市金山区金山卫镇金山大道4298弄29号",
"Dealer_type": 1,
"DisSort": "4s店"
},
{
"Id": 11434,
"DealerSN": "D2233",
"DisName": "上海恒锐汽车销售服务有限公司",
"CityID": 12207,
"Tel": "021-51879139",
"Sales_tel": "021-51879136",
"open_service": 0,
"Lng": "121.441451",
"Lat": "31.303941",
"Address": "上海市闸北区江场西路872号",
"Dealer_type": 1,
"DisSort": "4s店"
},
{
"Id": 11435,
"DealerSN": "D2235",
"DisName": "上海弘怡汽车销售服务有限公司",
"CityID": 12207,
"Tel": "021-54136732",
"Sales_tel": "021-52965560",
"open_service": 0,
"Lng": "121.332372",
"Lat": "31.175994",
"Address": "上海市闵行区华翔路19号",
"Dealer_type": 1,
"DisSort": "4s店"
},
{
"Id": 11436,
"DealerSN": "D2236",
"DisName": "上海联兴汽车销售有限公司",
"CityID": 12207,
"Tel": "021-59202268",
"Sales_tel": "021-59858886",
"open_service": 0,
"Lng": "121.131521",
"Lat": "31.19246",
"Address": "上海市北青公路9635号1幢",
"Dealer_type": 1,
"DisSort": "4s店"
},
{
"Id": 12207,
"DealerSN": "D2237",
"DisName": "上海弘嘉汽车销售服务有限公司",
"CityID": 12207,
"Tel": " 021-39599111",
"Sales_tel": "021-39599000",
"open_service": 0,
"Lng": "121.271529",
"Lat": "31.28199",
"Address": "嘉定区曹安公路4082号",
"Dealer_type": 2,
"DisSort": "4s店"
},
{
"Id": 12255,
"DealerSN": "D2240",
"DisName": "上海鑫现汽车销售服务有限公司",
"CityID": 12207,
"Tel": "021-57731073",
"Sales_tel": "021-57786188\/8307",
"open_service": 0,
"Lng": "121.259961",
"Lat": "31.039227",
"Address": "上海市松江区中山街道茸树路58号1幢1层、2层",
"Dealer_type": 2,
"DisSort": "4s店"
},
{
"Id": 12281,
"DealerSN": "D2238",
"DisName": "上海宝通赢汽车销售服务有限公司",
"CityID": 12207,
"Tel": "021-36555100",
"Sales_tel": "021-36555099",
"open_service": 0,
"Lng": "121.382544",
"Lat": "31.423659",
"Address": "宝山区月罗公路2255号",
"Dealer_type": 1,
"DisSort": "4s店"
},
{
"Id": 12304,
"DealerSN": "D2227",
"DisName": "上海惠盈汽车销售服务有限公司",
"CityID": 12207,
"Tel": "021-57731073",
"Sales_tel": "021-57786188",
"open_service": 0,
"Lng": "121.260556",
"Lat": "31.039635",
"Address": "上海市松江区茸树路58号1幢底楼2室",
"Dealer_type": 1,
"DisSort": "4s店"
},
{
"Id": 12363,
"DealerSN": "D2241",
"DisName": "上海嘉现汽车销售有限公司",
"CityID": 12207,
"Tel": "021-69078198",
"Sales_tel": "021-69078811",
"open_service": 0,
"Lng": "121.325333",
"Lat": "31.267103",
"Address": "上海市嘉定区江桥镇金园一路235号2幢2层",
"Dealer_type": 1,
"DisSort": "4s店"
},
{
"Id": 11446,
"DealerSN": "D2416",
"DisName": "天津市捷安汽车销售服务有限公司",
"CityID": 11446,
"Tel": "022-24661000",
"Sales_tel": "022-24665888",
"open_service": 0,
"Lng": "117.299994",
"Lat": "39.070241",
"Address": "天津市河西区大沽南路南头",
"Dealer_type": 1,
"DisSort": "4s店"
},
{
"Id": 11448,
"DealerSN": "D2420",
"DisName": "天津瑞芝汽车销售服务有限公司",
"CityID": 11446,
"Tel": "022-66206896\/022-66206897",
"Sales_tel": "022-66206891\/022-66206892",
"open_service": 0,
"Lng": "117.721104",
"Lat": "39.046743",
"Address": "天津经济技术开发区第五大街55号",
"Dealer_type": 1,
"DisSort": "4s店"
},
{
"Id": 11449,
"DealerSN": "D2421",
"DisName": "天津森龙润通汽车贸易有限公司",
"CityID": 11446,
"Tel": "022-24365588",
"Sales_tel": "022-24357788",
"open_service": 0,
"Lng": "117.381744",
"Lat": "39.167324",
"Address": "天津市东丽区环河北路48号",
"Dealer_type": 1,
"DisSort": "4s店"
},
{
"Id": 11450,
"DealerSN": "D2422",
"DisName": "天津庞大伟通汽车贸易有限公司",
"CityID": 11446,
"Tel": "022-86907091",
"Sales_tel": "022-86907098\/022-86907099",
"open_service": 0,
"Lng": "117.126422",
"Lat": "39.257373",
"Address": "北辰区双街镇京津公路东侧双江道南",
"Dealer_type": 1,
"DisSort": "4s店"
},
{
"Id": 11454,
"DealerSN": "D2427",
"DisName": "天津汇青源通汽车销售服务有限公司",
"CityID": 11446,
"Tel": "022-29150828",
"Sales_tel": "022-29126000",
"open_service": 0,
"Lng": "117.425328",
"Lat": "39.99846",
"Address": "天津蓟县中昌南路管城村路东",
"Dealer_type": 1,
"DisSort": "4s店"
},
{
"Id": 11455,
"DealerSN": "D2428",
"DisName": "天津市九州紫耀汽车销售服务有限公司",
"CityID": 11446,
"Tel": "022-84462810",
"Sales_tel": "022-84462802",
"open_service": 0,
"Lng": "117.305361",
"Lat": "39.128086",
"Address": "天津市东丽区雪莲路（天津市公共交通四公司院内）",
"Dealer_type": 1,
"DisSort": "4s店"
},
{
"Id": 11437,
"DealerSN": "D2316",
"DisName": "重庆永达北现汽车销售服务有限公司",
"CityID": 11437,
"Tel": "023-61893333",
"Sales_tel": "023-61893555",
"open_service": 0,
"Lng": "106.52571",
"Lat": "29.609681",
"Address": "重庆市渝北区红锦大道555号美源国际商务大厦1幢1-1",
"Dealer_type": 1,
"DisSort": "4s店"
},
{
"Id": 11439,
"DealerSN": "D2318",
"DisName": "重庆中汽西南当代汽车有限公司",
"CityID": 11437,
"Tel": "023-89112997",
"Sales_tel": "023-89112996",
"open_service": 0,
"Lng": "106.578401",
"Lat": "29.646091",
"Address": "重庆经济技术开发区经开园金渝大道99-7号",
"Dealer_type": 1,
"DisSort": "4s店"
},
{
"Id": 11440,
"DealerSN": "D2319",
"DisName": "重庆市御驰汽车贸易有限公司",
"CityID": 11437,
"Tel": "023-72881333",
"Sales_tel": "023-72883222",
"open_service": 0,
"Lng": "107.387182",
"Lat": "29.705313",
"Address": "涪陵区太极大道70号",
"Dealer_type": 1,
"DisSort": "4s店"
},
{
"Id": 11444,
"DealerSN": "D2323",
"DisName": "重庆永达万现汽车销售服务有限公司",
"CityID": 11437,
"Tel": "023-64893333",
"Sales_tel": "023-64893555",
"open_service": 0,
"Lng": "108.405824",
"Lat": "30.776587",
"Address": "重庆万州区沙龙路三段车管所后方",
"Dealer_type": 1,
"DisSort": "4s店"
},
{
"Id": 11445,
"DealerSN": "D2324",
"DisName": "重庆通际汽车销售服务有限公司",
"CityID": 11437,
"Tel": "023-85138169",
"Sales_tel": "023-85138166",
"open_service": 0,
"Lng": "106.287393",
"Lat": "29.943903",
"Address": "重庆市合川区工业园区高阳路与南溪路交叉口（F地块）",
"Dealer_type": 1,
"DisSort": "4s店"
},
{
"Id": 12241,
"DealerSN": "D2325",
"DisName": "重庆市潼南区鑫盛汽车销售服务有限公司",
"CityID": 11437,
"Tel": "023-44865888",
"Sales_tel": "023-81651188",
"open_service": 0,
"Lng": "105.83742",
"Lat": "30.157928",
"Address": "重庆市潼南区梓潼街道办事处创意大道99号",
"Dealer_type": 2,
"DisSort": "4s店"
},
{
"Id": 12321,
"DealerSN": "D2326",
"DisName": "重庆渝现泓源汽车销售服务有限责任公司",
"CityID": 11437,
"Tel": "023-68190808",
"Sales_tel": "023-68881444",
"open_service": 0,
"Lng": "106.463306",
"Lat": "29.525845",
"Address": "重庆市九龙坡区石新路176号1栋1-1号",
"Dealer_type": 1,
"DisSort": "4s店"
},
{
"Id": 12367,
"DealerSN": "D2327",
"DisName": "重庆商社强力汽车贸易有限公司",
"CityID": 11437,
"Tel": "023-63867799",
"Sales_tel": "023-63892288",
"open_service": 0,
"Lng": "106.535344",
"Lat": "29.550475",
"Address": "重庆市渝中区长江一路78号",
"Dealer_type": 1,
"DisSort": "4s店"
},
{
"Id": 12388,
"DealerSN": "D2328",
"DisName": "重庆金菱韩泰汽车销售服务有限公司",
"CityID": 11437,
"Tel": "023-62626699",
"Sales_tel": "023-62887333",
"open_service": 0,
"Lng": "106.566301",
"Lat": "29.516016",
"Address": "重庆市经开区白鹤路工业园区1号联合厂房一层",
"Dealer_type": 1,
"DisSort": "4s店"
},
{
"Id": 11852,
"DealerSN": "D4159",
"DisName": "潮州市南熙汽车销售服务有限公司",
"CityID": 11852,
"Tel": "0768-5219333",
"Sales_tel": "0768-6802888",
"open_service": 0,
"Lng": "116.605114",
"Lat": "23.603974",
"Address": "潮安县浮洋镇西郊村七支头",
"Dealer_type": 1,
"DisSort": "4s店"
},
{
"Id": 11825,
"DealerSN": "D4122",
"DisName": "东莞市永怡汽车贸易有限公司",
"CityID": 11857,
"Tel": "0769-22904091",
"Sales_tel": "0769-22904120",
"open_service": 0,
"Lng": "113.720613",
"Lat": "22.994853",
"Address": "东莞市南城区莞太大道白马路段346号  ",
"Dealer_type": 1,
"DisSort": "4s店"
},
{
"Id": 11827,
"DealerSN": "D4125",
"DisName": "东莞市冠丰汽车有限公司",
"CityID": 11857,
"Tel": "0769-83289728",
"Sales_tel": "0769-83267222\/0769-83267333",
"open_service": 0,
"Lng": "113.857139",
"Lat": "23.020775",
"Address": "东莞市寮步国际汽车城",
"Dealer_type": 1,
"DisSort": "4s店"
},
{
"Id": 11840,
"DealerSN": "D4146",
"DisName": "东莞市大朗世达汽车有限公司",
"CityID": 11857,
"Tel": "0769-81115119",
"Sales_tel": "0769-81115050",
"open_service": 0,
"Lng": "113.985663",
"Lat": "22.91209",
"Address": "广东省东莞市大朗镇石厦村富民南路79号",
"Dealer_type": 1,
"DisSort": "4s店"
},
{
"Id": 11842,
"DealerSN": "D4149",
"DisName": "东莞市广泰汽车有限公司",
"CityID": 11857,
"Tel": "0769-85223319",
"Sales_tel": "0769-82880018\/\n0769-82880028",
"open_service": 0,
"Lng": "113.682073",
"Lat": "22.862123",
"Address": "广东省东莞市虎门镇莞太大道白沙路段244号",
"Dealer_type": 1,
"DisSort": "4s店"
},
{
"Id": 11853,
"DealerSN": "D4160",
"DisName": "东莞市东胜汽车销售服务有限公司",
"CityID": 11857,
"Tel": "0769-82382828",
"Sales_tel": "0769-81559888\n\/0769-81551188",
"open_service": 0,
"Lng": "113.802526",
"Lat": "22.78929",
"Address": "广东省东莞市长安镇锦厦河西工业区德诚路1号",
"Dealer_type": 1,
"DisSort": "4s店"
},
{
"Id": 11857,
"DealerSN": "D4164",
"DisName": "东莞金世达汽车有限公司",
"CityID": 11857,
"Tel": "0769-82550111",
"Sales_tel": "0769-82550000",
"open_service": 0,
"Lng": "113.972104",
"Lat": "22.964293",
"Address": "东莞市常平镇金美村常朗路金美路段",
"Dealer_type": 1,
"DisSort": "4s店"
},
{
"Id": 11860,
"DealerSN": "D4168",
"DisName": "东莞新世达汽车有限公司",
"CityID": 11857,
"Tel": "0769-82168777",
"Sales_tel": "0769-82770777",
"open_service": 0,
"Lng": "114.101097",
"Lat": "22.85209",
"Address": "东莞市塘厦镇塘厦大道北212号",
"Dealer_type": 1,
"DisSort": "4s店"
},
{
"Id": 11861,
"DealerSN": "D4170",
"DisName": "东莞市永信汽车销售服务有限公司",
"CityID": 11857,
"Tel": "0769-82680555",
"Sales_tel": "0769-82680222",
"open_service": 0,
"Lng": "113.888565",
"Lat": "23.103113",
"Address": "茶山镇博头村莞龙路边",
"Dealer_type": 1,
"DisSort": "4s店"
},
{
"Id": 12346,
"DealerSN": "D4185",
"DisName": "东莞市和汇汽车有限公司",
"CityID": 11857,
"Tel": "0769-88086555",
"Sales_tel": "0769-88086333",
"open_service": 0,
"Lng": "113.668508",
"Lat": "23.102931",
"Address": "中堂镇广深公路107国道东泊段41号",
"Dealer_type": 1,
"DisSort": "4s店"
},
{
"Id": 11822,
"DealerSN": "D4119",
"DisName": "佛山市泰鑫汽车销售服务有限公司",
"CityID": 12238,
"Tel": "13827766532",
"Sales_tel": "0757-82700909",
"open_service": 0,
"Lng": "113.111028",
"Lat": "23.009565",
"Address": "佛山市佛山大道中57号",
"Dealer_type": 1,
"DisSort": "4s店"
},
{
"Id": 11823,
"DealerSN": "D4120",
"DisName": "佛山市顺德区合现汽车销售服务有限公司",
"CityID": 12238,
"Tel": "0757-22310668",
"Sales_tel": "0757-22310688",
"open_service": 0,
"Lng": "113.239451",
"Lat": "22.859991",
"Address": "大良广珠公路新松路段",
"Dealer_type": 1,
"DisSort": "4s店"
},
{
"Id": 11833,
"DealerSN": "D4133",
"DisName": "佛山市南海禅昌汽车服务有限公司",
"CityID": 12238,
"Tel": "0757-85591111",
"Sales_tel": "0757-85599981\/0757-85599982",
"open_service": 0,
"Lng": "113.147657",
"Lat": "23.085129",
"Address": "南海区大沥桂江公路亚洲铝厂南侧",
"Dealer_type": 1,
"DisSort": "4s店"
},
{
"Id": 11862,
"DealerSN": "D4171",
"DisName": "佛山市俊山汽车销售服务有限公司",
"CityID": 12238,
"Tel": "18823130299",
"Sales_tel": "0757-66882022",
"open_service": 0,
"Lng": "113.247932",
"Lat": "22.946554",
"Address": "顺德区陈村镇南涌芸香围105国道18号之19",
"Dealer_type": 1,
"DisSort": "4s店"
},
{
"Id": 11863,
"DealerSN": "D4172",
"DisName": "佛山市南海时利和北现汽车销售服务有限公司",
"CityID": 12238,
"Tel": "0757-86681810",
"Sales_tel": "0757-86638000",
"open_service": 0,
"Lng": "113.01944",
"Lat": "23.133745",
"Address": "佛山市南海狮山广云南路（佛山一环狮山立交西侧）",
"Dealer_type": 1,
"DisSort": "4s店"
},
{
"Id": 12238,
"DealerSN": "D4177",
"DisName": "佛山市广物粤现汽车销售服务有限公司",
"CityID": 12238,
"Tel": "0757-85618291",
"Sales_tel": "0757-85602655",
"open_service": 0,
"Lng": "113.178162",
"Lat": "23.175755",
"Address": "佛山市南海区里水镇河村村土瓜园（佛山一环东侧水口路出口） 广佛汽车城",
"Dealer_type": 2,
"DisSort": "4s店"
},
{
"Id": 11821,
"DealerSN": "D4118",
"DisName": "广东羊城汽车销售有限公司",
"CityID": 11824,
"Tel": "020-36402655",
"Sales_tel": "020-26274033",
"open_service": 0,
"Lng": "113.287745",
"Lat": "23.210488",
"Address": "广州市白云区黄石东路591号",
"Dealer_type": 1,
"DisSort": "4s店"
},
{
"Id": 11824,
"DealerSN": "D4121",
"DisName": "广州宏现汽车销售服务有限公司",
"CityID": 11824,
"Tel": "020-84567999",
"Sales_tel": "020-84567222",
"open_service": 0,
"Lng": "113.363172",
"Lat": "22.987259",
"Address": "广州市番禺区番禺大道冼庄立交桥南300米（瑞华汽车城内）",
"Dealer_type": 1,
"DisSort": "4s店"
},
{
"Id": 11831,
"DealerSN": "D4130",
"DisName": "广东中现汽车销售服务有限公司",
"CityID": 11824,
"Tel": "020-37091800",
"Sales_tel": "020-37091188",
"open_service": 0,
"Lng": "113.358294",
"Lat": "23.187776",
"Address": "广州市天河区广汕公路元岗路段广州汽车市场A4",
"Dealer_type": 1,
"DisSort": "4s店"
},
{
"Id": 11834,
"DealerSN": "D4134",
"DisName": "广州市龙腾花现汽车销售服务有限公司",
"CityID": 11824,
"Tel": "020-86869599",
"Sales_tel": "020-86877111",
"open_service": 0,
"Lng": "113.188815",
"Lat": "23.386339",
"Address": "广州市花都区风神大道8号",
"Dealer_type": 1,
"DisSort": "4s店"
},
{
"Id": 11843,
"DealerSN": "D4150",
"DisName": "广州市伟加汽车销售有限公司",
"CityID": 11824,
"Tel": "020-82688118",
"Sales_tel": "020-82688111",
"open_service": 0,
"Lng": "113.648363",
"Lat": "23.127551",
"Address": "广州增城市新塘镇107国道新沙路口",
"Dealer_type": 1,
"DisSort": "4s店"
},
{
"Id": 11847,
"DealerSN": "D4154",
"DisName": "广州市东奇汽车有限公司",
"CityID": 11824,
"Tel": "020-81484910",
"Sales_tel": "020-81484909",
"open_service": 1,
"Lng": "113.198637",
"Lat": "23.07291",
"Address": "广州市荔湾区龙溪大道488号",
"Dealer_type": 1,
"DisSort": "4s店"
},
{
"Id": 12242,
"DealerSN": "D4179",
"DisName": "广州祥烜城汽车销售服务有限公司 ",
"CityID": 11824,
"Tel": "020-32589216",
"Sales_tel": "020-32589673",
"open_service": 0,
"Lng": "113.332229",
"Lat": "23.267112",
"Address": "广州市白云区广从快速路旁城门河货运市场祥烜城北京现代汽车4S店",
"Dealer_type": 2,
"DisSort": "4s店"
},
{
"Id": 12379,
"DealerSN": "D4187",
"DisName": "河源市通惠汽车有限公司",
"CityID": 12379,
"Tel": "0762-3919555",
"Sales_tel": "0762-3919666",
"open_service": 0,
"Lng": "114.694947",
"Lat": "23.708922",
"Address": "源城区桂山大道南侧",
"Dealer_type": 1,
"DisSort": "4s店"
},
{
"Id": 11845,
"DealerSN": "D4152",
"DisName": "惠州市三惠汽车有限公司",
"CityID": 11845,
"Tel": "0752-2229000",
"Sales_tel": "0752-2220022",
"open_service": 0,
"Lng": "114.391479",
"Lat": "23.097554",
"Address": "惠州市惠城区鳄湖路军部1号门对面",
"Dealer_type": 1,
"DisSort": "4s店"
},
{
"Id": 12343,
"DealerSN": "D4181",
"DisName": "惠州市辰惠汽车有限公司",
"CityID": 11845,
"Tel": "0752-7801868",
"Sales_tel": "0572-7801838",
"open_service": 0,
"Lng": "114.446918",
"Lat": "23.008267",
"Address": "惠城区三栋镇上洞村尖顶仔地段惠南大道旁",
"Dealer_type": 1,
"DisSort": "4s店"
},
{
"Id": 12402,
"DealerSN": "D4188",
"DisName": "惠州市昇惠汽车有限公司",
"CityID": 11845,
"Tel": "0752-2829108",
"Sales_tel": "0752-2807779",
"open_service": 0,
"Lng": "114.3695213373",
"Lat": "23.0949164399",
"Address": "惠州市惠城区江北51号小区（金龙大道边）钢铁交易中心对面昇惠北京现代4S店",
"Dealer_type": 1,
"DisSort": "4s店"
},
{
"Id": 11844,
"DealerSN": "D4151",
"DisName": "江门瑞华宏现汽车销售服务有限公司",
"CityID": 11844,
"Tel": "0750-3617199",
"Sales_tel": "0750-3617190",
"open_service": 0,
"Lng": "113.083781",
"Lat": "22.559827",
"Address": "江门市江海区五邑路121号三菱汽车专卖店展厅、维修车间全部",
"Dealer_type": 1,
"DisSort": "4s店"
},
{
"Id": 12231,
"DealerSN": "D4178",
"DisName": "江门兴远",
"CityID": 11844,
"Tel": "0750-3692838",
"Sales_tel": "0750-3692999",
"open_service": 0,
"Lng": "113.066824",
"Lat": "22.589858",
"Address": "蓬江区西环路华鸿广场12栋（博皇家居斜对面）",
"Dealer_type": 2,
"DisSort": "4s店"
},
{
"Id": 11835,
"DealerSN": "D4135",
"DisName": "揭阳市群记物资有限公司",
"CityID": 11835,
"Tel": "0663-8229000",
"Sales_tel": "0663-8219999",
"open_service": 0,
"Lng": "116.390805",
"Lat": "23.572645",
"Address": "揭阳市东山区环市北路与莲花大道交界处",
"Dealer_type": 1,
"DisSort": "4s店"
},
{
"Id": 11838,
"DealerSN": "D4143",
"DisName": "茂名卓粤汽车有限公司",
"CityID": 11838,
"Tel": "0668-2928866",
"Sales_tel": "0668-2928188",
"open_service": 0,
"Lng": "113.147657",
"Lat": "23.085129",
"Address": "茂名市高水公路南香路段厚禄陂村京粤汽车城（即阳茂高速茂名出口往市区方向500米）",
"Dealer_type": 1,
"DisSort": "4s店"
},
{
"Id": 11850,
"DealerSN": "D4157",
"DisName": "梅州宏达汽车销售服务有限公司",
"CityID": 11850,
"Tel": "0753-2539965",
"Sales_tel": "0753-2567888",
"open_service": 0,
"Lng": "116.081821",
"Lat": "24.294764",
"Address": "梅州市梅县程江古塘坪",
"Dealer_type": 1,
"DisSort": "4s店"
},
{
"Id": 11851,
"DealerSN": "D4158",
"DisName": "清远市泰翔汽车销售服务有限公司",
"CityID": 11851,
"Tel": "0763-3510228",
"Sales_tel": "0763-3510188",
"open_service": 0,
"Lng": "113.066927",
"Lat": "23.658428",
"Address": "清远市新城东B41号区（107国道旁）远光电缆对面",
"Dealer_type": 1,
"DisSort": "4s店"
},
{
"Id": 11830,
"DealerSN": "D4129",
"DisName": "汕头市合民汽车贸易有限公司",
"CityID": 11830,
"Tel": "0754-83221866",
"Sales_tel": "0754-83221888",
"open_service": 0,
"Lng": "116.755407",
"Lat": "23.391364",
"Address": "汕头市龙湖区泰山路30B",
"Dealer_type": 1,
"DisSort": "4s店"
},
{
"Id": 12362,
"DealerSN": "D4186",
"DisName": "汕尾中铭汽车销售服务有限公司",
"CityID": 12362,
"Tel": "0660-3410000",
"Sales_tel": "0660-3419666",
"open_service": 0,
"Lng": "115.368742",
"Lat": "22.83422",
"Address": "汕尾市城区埔边工业区海汕公路德昌电子厂对面（汕尾中铭现代4S店）",
"Dealer_type": 1,
"DisSort": "4s店"
},
{
"Id": 11846,
"DealerSN": "D4153",
"DisName": "韶关市联现汽车销售服务有限公司",
"CityID": 11846,
"Tel": "0751-8203399",
"Sales_tel": "0751-8201111",
"open_service": 0,
"Lng": "113.586881",
"Lat": "24.739595",
"Address": "广东省韶关市韶南大道八公里东侧（北京现代4S店）",
"Dealer_type": 1,
"DisSort": "4s店"
},
{
"Id": 11820,
"DealerSN": "D4117",
"DisName": "深圳市大胜汽车销售服务有限公司",
"CityID": 11858,
"Tel": "0755-83707777",
"Sales_tel": "0755-83705555",
"open_service": 0,
"Lng": "114.036942",
"Lat": "22.548027",
"Address": "福田区红荔西路联合华鹏汽车广场B3",
"Dealer_type": 1,
"DisSort": "4s店"
},
{
"Id": 11826,
"DealerSN": "D4123",
"DisName": "深圳市顺和盈汽车贸易有限公司",
"CityID": 11858,
"Tel": "0755-26161111",
"Sales_tel": "0755-26163888",
"open_service": 0,
"Lng": "113.914904",
"Lat": "22.532628",
"Address": "广东省深圳市南山区月亮湾大道深圳火车西站南侧",
"Dealer_type": 1,
"DisSort": "4s店"
},
{
"Id": 11841,
"DealerSN": "D4148",
"DisName": "深圳市新力达新亚汽车贸易有限公司",
"CityID": 11858,
"Tel": "0755-84829199",
"Sales_tel": "0755-84864988",
"open_service": 0,
"Lng": "114.232438",
"Lat": "22.708432",
"Address": "圳市龙岗区如意路301号陂头背村口（老干部活动中心对面）",
"Dealer_type": 1,
"DisSort": "4s店"
},
{
"Id": 11858,
"DealerSN": "D4166",
"DisName": "深圳市昊天林汽车服务有限公司",
"CityID": 11858,
"Tel": "0755-27717638",
"Sales_tel": "0755-27717628  ",
"open_service": 0,
"Lng": "113.848737",
"Lat": "22.780618",
"Address": "深圳市宝安区107国道松岗段415号（昊天林汽车大厦）",
"Dealer_type": 1,
"DisSort": "4s店"
},
{
"Id": 11854,
"DealerSN": "D4161",
"DisName": "阳江市京泰汽车销售服务有限公司",
"CityID": 11854,
"Tel": "0662-2858999",
"Sales_tel": "0662-3268989",
"open_service": 1,
"Lng": "110.382779",
"Lat": "21.295622",
"Address": "广东省阳江市江城区金山路边",
"Dealer_type": 1,
"DisSort": "4s店"
},
{
"Id": 11856,
"DealerSN": "D4163",
"DisName": "云浮美轮运现汽车有限公司",
"CityID": 11856,
"Tel": "15007664999",
"Sales_tel": "0766-8325555",
"open_service": 1,
"Lng": "112.072139",
"Lat": "22.958228",
"Address": "广东省云浮市云城区过境公路28号（新人民医院旁）",
"Dealer_type": 1,
"DisSort": "4s店"
},
{
"Id": 11839,
"DealerSN": "D4144",
"DisName": "湛江市中富汽车销售服务有限公司",
"CityID": 11839,
"Tel": "0759-3289662",
"Sales_tel": "0759-3289666",
"open_service": 0,
"Lng": "110.382779",
"Lat": "21.295622",
"Address": "湛江市赤坎区海田路118号",
"Dealer_type": 1,
"DisSort": "4s店"
},
{
"Id": 12320,
"DealerSN": "D4184",
"DisName": "湛江市广缘创力汽车销售服务有限公司",
"CityID": 11839,
"Tel": "0759-2813378",
"Sales_tel": "0759-2813398",
"open_service": 0,
"Lng": "110.322546",
"Lat": "21.297355",
"Address": "麻章区瑞云北路101粤西国际车城内（南亚郦都小区对面）",
"Dealer_type": 1,
"DisSort": "4s店"
},
{
"Id": 11837,
"DealerSN": "D4142",
"DisName": "肇庆美现汽车有限公司",
"CityID": 11837,
"Tel": "0758-2777222",
"Sales_tel": "0758-2777333",
"open_service": 0,
"Lng": "113.147657",
"Lat": "23.085129",
"Address": "广东省肇庆市肇庆大道北侧（肇庆学院东侧）",
"Dealer_type": 1,
"DisSort": "4s店"
},
{
"Id": 11829,
"DealerSN": "D4127",
"DisName": "中山市创现汽车销售服务有限公司",
"CityID": 12264,
"Tel": "0760-88556223",
"Sales_tel": "0760-88551008",
"open_service": 0,
"Lng": "113.360409",
"Lat": "22.553102",
"Address": "中山市西区沙朗彩虹大道40号",
"Dealer_type": 1,
"DisSort": "4s店"
},
{
"Id": 11849,
"DealerSN": "D4156",
"DisName": "中山市创世纪城南汽车有限公司",
"CityID": 12264,
"Tel": "0760-88796223",
"Sales_tel": "0760-88796600",
"open_service": 0,
"Lng": "113.354531",
"Lat": "22.472113",
"Address": "广东省中山市南区城南四路一号之一",
"Dealer_type": 1,
"DisSort": "4s店"
},
{
"Id": 11855,
"DealerSN": "D4162",
"DisName": "中山市中启汽车销售服务有限公司",
"CityID": 12264,
"Tel": "0760-88509801",
"Sales_tel": "0760-88509800",
"open_service": 0,
"Lng": "113.327762",
"Lat": "22.581811",
"Address": "中山市东升镇坦背西二马路177号第一卡",
"Dealer_type": 1,
"DisSort": "4s店"
},
{
"Id": 12216,
"DealerSN": "D4175",
"DisName": "中山市永星汽车贸易有限公司",
"CityID": 12264,
"Tel": "0760-88582202",
"Sales_tel": "0760-88582227",
"open_service": 0,
"Lng": "113.428776",
"Lat": "22.523781",
"Address": "中山市火炬开发区中山六路二号之12",
"Dealer_type": 2,
"DisSort": "4s店"
},
{
"Id": 12264,
"DealerSN": "D4180",
"DisName": "中山市嘉德汽车贸易有限公司",
"CityID": 12264,
"Tel": "0760-88509801",
"Sales_tel": "0760-88509800",
"open_service": 0,
"Lng": "113.327612",
"Lat": "22.581791",
"Address": "东升镇坦背西2马路177卡",
"Dealer_type": 2,
"DisSort": "4s店"
},
{
"Id": 11832,
"DealerSN": "D4132",
"DisName": "珠海市华德汽车贸易有限公司",
"CityID": 11864,
"Tel": "0756-6312660",
"Sales_tel": "0756-6312666",
"open_service": 0,
"Lng": "113.506088",
"Lat": "22.290079",
"Address": "珠海市华宇路87号",
"Dealer_type": 1,
"DisSort": "4s店"
},
{
"Id": 11864,
"DealerSN": "D4173",
"DisName": "珠海市华德致远汽车销售服务有限公司",
"CityID": 11864,
"Tel": "0756-6315666",
"Sales_tel": "0756-6317333",
"open_service": 0,
"Lng": "113.335359",
"Lat": "22.212692",
"Address": "珠海市斗门区白蕉镇白蕉南路46号",
"Dealer_type": 2,
"DisSort": "4s店"
},
{
"Id": 11647,
"DealerSN": "D3320",
"DisName": "安庆宜通汽车销售服务有限公司",
"CityID": 11647,
"Tel": "0556-5345678",
"Sales_tel": "0556-5345050",
"open_service": 0,
"Lng": "117.050599",
"Lat": "30.558846",
"Address": "安庆市开发区迎宾路319号",
"Dealer_type": 1,
"DisSort": "4s店"
},
{
"Id": 11666,
"DealerSN": "D3340",
"DisName": "安庆永通汽车销售服务有限公司",
"CityID": 11647,
"Tel": "0556-5766999",
"Sales_tel": "0556-5766777",
"open_service": 0,
"Lng": "117.065302",
"Lat": "30.57521",
"Address": "安徽省安庆市宜秀区石塘湖路10号英德利汽车城三期",
"Dealer_type": 1,
"DisSort": "4s店"
},
{
"Id": 12274,
"DealerSN": "D3347",
"DisName": "桐城市利之星汽车销售服务有限公司",
"CityID": 11647,
"Tel": "0556-8819977",
"Sales_tel": "0556-8887666",
"open_service": 0,
"Lng": "116.947967",
"Lat": "31.021731",
"Address": "安徽省桐城市文昌街道交通村合安路东侧4#101",
"Dealer_type": 1,
"DisSort": "4s店"
},
{
"Id": 11646,
"DealerSN": "D3319",
"DisName": "蚌埠市润通汽车销售有限公司",
"CityID": 11646,
"Tel": "0552-3712345",
"Sales_tel": "0552-3712233",
"open_service": 0,
"Lng": "117.32058",
"Lat": "32.871129",
"Address": "蚌埠市高新区迎宾大道中段国际汽车城",
"Dealer_type": 1,
"DisSort": "4s店"
},
{
"Id": 11652,
"DealerSN": "D3326",
"DisName": "安徽瑞和汽车销售服务有限公司",
"CityID": 11652,
"Tel": "0558-7651000",
"Sales_tel": "0558-7608000",
"open_service": 0,
"Lng": "116.577031",
"Lat": "33.248752",
"Address": "亳州市蒙城县汽车产业园区",
"Dealer_type": 1,
"DisSort": "4s店"
},
{
"Id": 11663,
"DealerSN": "D3337",
"DisName": "亳州市英豪汽车销售服务有限公司",
"CityID": 11652,
"Tel": "0558-5771311",
"Sales_tel": "0558-5107888\/5771711\/5771511",
"open_service": 0,
"Lng": "115.755467",
"Lat": "33.83106",
"Address": "安徽省亳州市谯城区淮河路与振谯路交叉口（亳州春雨国际汽车城内）",
"Dealer_type": 1,
"DisSort": "4s店"
},
{
"Id": 11661,
"DealerSN": "D3335",
"DisName": "安徽省池州市盛奇汽车销售服务有限公司",
"CityID": 11661,
"Tel": "0566-2227110",
"Sales_tel": "0566-2227100",
"open_service": 0,
"Lng": "117.541505",
"Lat": "30.626049",
"Address": "池州市站前区青年路莲路汽车服务业集聚区",
"Dealer_type": 1,
"DisSort": "4s店"
},
{
"Id": 11660,
"DealerSN": "D3334",
"DisName": "滁州宁宝汽车销售服务有限公司",
"CityID": 12315,
"Tel": "0550-6826789",
"Sales_tel": "0550-6826666",
"open_service": 0,
"Lng": "118.35318",
"Lat": "32.271287",
"Address": "滁州经济技术开发区金凤路88号",
"Dealer_type": 1,
"DisSort": "4s店"
},
{
"Id": 12315,
"DealerSN": "D3349",
"DisName": "天长市环圣汽车销售服务有限公司",
"CityID": 12315,
"Tel": "0550-7615999\/7862999",
"Sales_tel": "0550-7300888\/7043888",
"open_service": 0,
"Lng": "119.043175",
"Lat": "32.674711",
"Address": "天长市炳辉路与秦栏路交汇处",
"Dealer_type": 1,
"DisSort": "4s店"
},
{
"Id": 11648,
"DealerSN": "D3322",
"DisName": "安徽省阜阳市飞达汽车销售服务有限公司",
"CityID": 11664,
"Tel": "0558-2219332",
"Sales_tel": "0558-2219336",
"open_service": 0,
"Lng": "115.869461",
"Lat": "32.845418",
"Address": "阜阳市经济技术开发区十八里铺汽贸物流园经六路与汽贸路交叉口",
"Dealer_type": 1,
"DisSort": "4s店"
},
{
"Id": 11664,
"DealerSN": "D3338",
"DisName": "阜阳市伟田汽车销售服务有限公司",
"CityID": 11664,
"Tel": "0558-2219105",
"Sales_tel": "0558-2219101",
"open_service": 0,
"Lng": "115.848156",
"Lat": "32.875056",
"Address": "阜阳市开发区七里铺288号",
"Dealer_type": 1,
"DisSort": "4s店"
},
{
"Id": 11643,
"DealerSN": "D3316",
"DisName": "合肥市伟光汽车销售服务有限公司",
"CityID": 11643,
"Tel": "0551-64289722",
"Sales_tel": "0551-64289755\/0551-64289766",
"open_service": 0,
"Lng": "117.343507",
"Lat": "31.890681",
"Address": "合肥市新站区北二环路汴河段安徽国际汽车城16号",
"Dealer_type": 1,
"DisSort": "4s店"
},
{
"Id": 11645,
"DealerSN": "D3318",
"DisName": "安徽稳达汽车销售服务有限公司",
"CityID": 11643,
"Tel": "0551-63444277",
"Sales_tel": "0551-63445288",
"open_service": 0,
"Lng": "117.310675",
"Lat": "31.797117",
"Address": "合肥市包河区繁华大道与庐州大道交口南50米",
"Dealer_type": 1,
"DisSort": "4s店"
},
{
"Id": 11656,
"DealerSN": "D3330",
"DisName": "安徽伟合汽车销售服务有限公司",
"CityID": 11643,
"Tel": "0551-63400678",
"Sales_tel": "0551-63400677",
"open_service": 0,
"Lng": "117.352984",
"Lat": "31.803631",
"Address": "安徽省合肥市包河工业区长春街（纬一路）18号",
"Dealer_type": 1,
"DisSort": "4s店"
},
{
"Id": 11662,
"DealerSN": "D3336",
"DisName": "合肥亚越汽车销售服务有限公司",
"CityID": 11643,
"Tel": "0551-65837575",
"Sales_tel": "0551-65837171",
"open_service": 0,
"Lng": "117.217932",
"Lat": "31.837519",
"Address": "合肥市环湖东路19号亚夏汽车城",
"Dealer_type": 1,
"DisSort": "4s店"
},
{
"Id": 11668,
"DealerSN": "D3342",
"DisName": "合肥恒信华通汽车销售服务有限公司",
"CityID": 11643,
"Tel": "0551-67186999",
"Sales_tel": "0551-67186888",
"open_service": 0,
"Lng": "117.275925",
"Lat": "31.916844",
"Address": "蒙城北路1111号合肥恒信华通现代4S店",
"Dealer_type": 1,
"DisSort": "4s店"
},
{
"Id": 12256,
"DealerSN": "D3348",
"DisName": "合肥弘现汽车销售服务有限公司",
"CityID": 11643,
"Tel": "0551-82362999",
"Sales_tel": "0551-82362888",
"open_service": 0,
"Lng": "117.8947222",
"Lat": "31.63166666",
"Address": "巢湖市半汤路中段",
"Dealer_type": 2,
"DisSort": "4s店"
},
{
"Id": 12349,
"DealerSN": "D3350",
"DisName": "合肥锐现汽车销售有限公司",
"CityID": 11643,
"Tel": "0551-87013088",
"Sales_tel": "0551-87011088",
"open_service": 0,
"Lng": "117.283573",
"Lat": "31.285439",
"Address": "庐江县合铜公路",
"Dealer_type": 1,
"DisSort": "4s店"
},
{
"Id": 12392,
"DealerSN": "D3351",
"DisName": "合肥伟悦汽车销售服务有限公司",
"CityID": 11643,
"Tel": "0551-67770309",
"Sales_tel": "0551-67770306",
"open_service": 0,
"Lng": "117.436977",
"Lat": "31.87758",
"Address": "肥东县经济开发区长江东路与祥和路交叉口向南200米",
"Dealer_type": 1,
"DisSort": "4s店"
},
{
"Id": 11654,
"DealerSN": "D3328",
"DisName": "淮北市北润汽车销售服务有限公司",
"CityID": 11654,
"Tel": "0561-3866789",
"Sales_tel": "0561-3113115",
"open_service": 0,
"Lng": "116.804231",
"Lat": "33.932735",
"Address": "淮北市相山区汽车城瑞骑路15号",
"Dealer_type": 1,
"DisSort": "4s店"
},
{
"Id": 11658,
"DealerSN": "D3332",
"DisName": "淮南市恒美汽车销售服务有限公司",
"CityID": 11658,
"Tel": "0554-3312211",
"Sales_tel": "0554-3312233",
"open_service": 0,
"Lng": "117.075245",
"Lat": "32.666772",
"Address": "安徽省淮南市洛河经济技术开发区管委会大楼东200米绿十字对面",
"Dealer_type": 1,
"DisSort": "4s店"
},
{
"Id": 11655,
"DealerSN": "D3329",
"DisName": "黄山市亚翔汽车销售服务有限公司",
"CityID": 11655,
"Tel": "0559-2317333",
"Sales_tel": "2559-2523777",
"open_service": 0,
"Lng": "118.275338",
"Lat": "29.753612",
"Address": "安徽省黄山市屯溪区经济开发区齐云大道",
"Dealer_type": 1,
"DisSort": "4s店"
},
{
"Id": 11651,
"DealerSN": "D3325",
"DisName": "六安市万通汽贸有限公司",
"CityID": 12249,
"Tel": "0564-3615777",
"Sales_tel": "0564-3613777",
"open_service": 0,
"Lng": "116.481379",
"Lat": "31.719208",
"Address": "六安市裕安区城南开发区（天裕米业对面）",
"Dealer_type": 1,
"DisSort": "4s店"
},
{
"Id": 11667,
"DealerSN": "D3341",
"DisName": "六安汇添汽车销售服务有限公司",
"CityID": 12249,
"Tel": "0564-3960336",
"Sales_tel": "0564-3637711",
"open_service": 0,
"Lng": "116.617657",
"Lat": "31.767397",
"Address": "安徽省六安市金安经济开发区312国道胜利南路西侧",
"Dealer_type": 1,
"DisSort": "4s店"
},
{
"Id": 12249,
"DealerSN": "D3346",
"DisName": " 舒城景瑞汽车服务有限公司",
"CityID": 12249,
"Tel": "0564-8567177",
"Sales_tel": "0564-8579777",
"open_service": 1,
"Lng": "116.987715",
"Lat": "31.49587",
"Address": "舒城县桃溪镇合安路西北侧",
"Dealer_type": 2,
"DisSort": "4s店"
},
{
"Id": 11653,
"DealerSN": "D3327",
"DisName": "马鞍山伟厚汽车销售服务有限公司",
"CityID": 11653,
"Tel": "0555-6759999",
"Sales_tel": "0555-6756666",
"open_service": 0,
"Lng": "118.504752",
"Lat": "31.646298",
"Address": "马鞍山当涂经济开发区",
"Dealer_type": 1,
"DisSort": "4s店"
},
{
"Id": 12212,
"DealerSN": "D3344",
"DisName": "马鞍山瑞洲汽车销售服务有限公司",
"CityID": 11653,
"Tel": "0555-7197999",
"Sales_tel": "0555-7197888",
"open_service": 0,
"Lng": "118.504699",
"Lat": "31.646554",
"Address": "湖西南路152号",
"Dealer_type": 2,
"DisSort": "4s店"
},
{
"Id": 12272,
"DealerSN": "D3345",
"DisName": "宿州亿之杰汽车销售服务有限公司",
"CityID": 12272,
"Tel": "0557-2870999",
"Sales_tel": "0557-2870555",
"open_service": 0,
"Lng": "117.051969",
"Lat": "33.638016",
"Address": "安徽省宿州市市辖区循环经济示范园仁和路东侧800米",
"Dealer_type": 1,
"DisSort": "4s店"
},
{
"Id": 11659,
"DealerSN": "D3333",
"DisName": "铜陵金丰鑫海汽车贸易有限公司",
"CityID": 11659,
"Tel": "0562-6822777",
"Sales_tel": "0562-6822666",
"open_service": 0,
"Lng": "118.320423",
"Lat": "32.270318",
"Address": "铜陵市铜芜路铜陵国际汽车城",
"Dealer_type": 1,
"DisSort": "4s店"
},
{
"Id": 11644,
"DealerSN": "D3317",
"DisName": "芜湖亚夏轿车销售服务有限公司",
"CityID": 11644,
"Tel": "0553-2870558",
"Sales_tel": "0553-2870555",
"open_service": 0,
"Lng": "118.406323",
"Lat": "31.366638",
"Address": "芜湖市弋江北路亚夏汽车城",
"Dealer_type": 1,
"DisSort": "4s店"
},
{
"Id": 11665,
"DealerSN": "D3339",
"DisName": "芜湖伟胜汽车销售服务有限公司",
"CityID": 11644,
"Tel": "0553-5882288",
"Sales_tel": "0553-5891555",
"open_service": 0,
"Lng": "118.420304",
"Lat": "31.374431",
"Address": "鸠兹家苑南门斜对面翰文中学向东200米 芜湖汽车服务中心（芜宣高速北侧、纬次路南端鸠兹家苑南门对面）2号地块",
"Dealer_type": 1,
"DisSort": "4s店"
},
{
"Id": 11650,
"DealerSN": "D3324",
"DisName": "宣城亚绅汽车销售服务有限公司",
"CityID": 11650,
"Tel": "0563-2628666",
"Sales_tel": "0563-2628999",
"open_service": 0,
"Lng": "118.984266",
"Lat": "30.612149",
"Address": "安徽省宣城市经济技术开发区昭亭南路亚夏汽车城",
"Dealer_type": 1,
"DisSort": "4s店"
},
{
"Id": 12291,
"DealerSN": "D3343",
"DisName": "宣城亚夏北现汽车销售服务有限公司",
"CityID": 11650,
"Tel": "0563-2527166",
"Sales_tel": "0563-2067222",
"open_service": 0,
"Lng": "118.836914",
"Lat": "30.94807",
"Address": "安徽省宣城市宣州区宁阳路亚夏汽车文化财富广场",
"Dealer_type": 1,
"DisSort": "4s店"
},
{
"Id": 11810,
"DealerSN": "D4028",
"DisName": "福清市吉诺汽车贸易有限公司",
"CityID": 11810,
"Tel": "0591-85257111",
"Sales_tel": "0591-85215111",
"open_service": 0,
"Lng": "119.342973",
"Lat": "25.726496",
"Address": "福清市清荣大道石竹街道前亭村",
"Dealer_type": 1,
"DisSort": "4s店"
},
{
"Id": 11804,
"DealerSN": "D4017",
"DisName": "福州中诺汽车有限公司",
"CityID": 11804,
"Tel": "0591-83530300",
"Sales_tel": "0591-83535350",
"open_service": 0,
"Lng": "119.352576",
"Lat": "26.021219",
"Address": "福州市仓山区则徐大道625号",
"Dealer_type": 2,
"DisSort": "4s店"
},
{
"Id": 11807,
"DealerSN": "D4021",
"DisName": "福建中源汽车销售有公司",
"CityID": 11804,
"Tel": "0591-88809777",
"Sales_tel": "0591-88813888",
"open_service": 0,
"Lng": "119.359717",
"Lat": "26.090435",
"Address": "福建省福州市晋安区前横路199号",
"Dealer_type": 1,
"DisSort": "4s店"
},
{
"Id": 11813,
"DealerSN": "D4033",
"DisName": "福建新锐汽车销售服务有限公司",
"CityID": 11804,
"Tel": "0591-22263688",
"Sales_tel": "0591-22252111",
"open_service": 0,
"Lng": "119.386828",
"Lat": "25.924157",
"Address": "福建省闽侯县尚干镇祥通路11号",
"Dealer_type": 1,
"DisSort": "4s店"
},
{
"Id": 12190,
"DealerSN": "D4039",
"DisName": "福州吉诺中凯汽车有限公司",
"CityID": 11804,
"Tel": "0591-22931111",
"Sales_tel": "0591-22952222",
"open_service": 0,
"Lng": "119.204667",
"Lat": "26.079562",
"Address": "福建省福州市闽侯县上街镇新峰村惠好路（惠好集团正对面）",
"Dealer_type": 2,
"DisSort": "4s店"
},
{
"Id": 11809,
"DealerSN": "D4023",
"DisName": "龙岩通顺汽车销售服务有限公司",
"CityID": 11814,
"Tel": "0597-2361666",
"Sales_tel": "0597-2362666",
"open_service": 0,
"Lng": "117.051883",
"Lat": "25.119231",
"Address": "龙岩市东城东新路148号",
"Dealer_type": 1,
"DisSort": "4s店"
},
{
"Id": 11814,
"DealerSN": "D4034",
"DisName": "龙岩中天汽车销售服务有限公司",
"CityID": 11814,
"Tel": "0597-5306008       ",
"Sales_tel": "0597-5306006",
"open_service": 0,
"Lng": "116.972087",
"Lat": "25.103105",
"Address": "龙岩市新罗区龙门镇第十中学路口旁",
"Dealer_type": 1,
"DisSort": "4s店"
},
{
"Id": 11818,
"DealerSN": "D4041",
"DisName": "南平吉诺龙鑫汽车销售服务有限公司",
"CityID": 11818,
"Tel": "0599-8806777",
"Sales_tel": "0599-8807999",
"open_service": 0,
"Lng": "118.130239",
"Lat": "26.589263",
"Address": "南平市延平区西芹镇水溪口",
"Dealer_type": 1,
"DisSort": "4s店"
},
{
"Id": 12312,
"DealerSN": "D4044",
"DisName": "宁德市优品汽车有限公司",
"CityID": 12312,
"Tel": "0593-2935968",
"Sales_tel": "0593-2921288",
"open_service": 0,
"Lng": "119.542619",
"Lat": "26.639121",
"Address": "宁德市蕉城京都商贸区站前路南侧（后岗环岛加油站旁）",
"Dealer_type": 1,
"DisSort": "4s店"
},
{
"Id": 11808,
"DealerSN": "D4022",
"DisName": "福建奇奇工贸有限公司",
"CityID": 11808,
"Tel": "0594-2889938",
"Sales_tel": "0594-2889928",
"open_service": 0,
"Lng": "119.058483",
"Lat": "25.478379\n",
"Address": "福建省莆田市荔城区西天尾镇龙山村",
"Dealer_type": 1,
"DisSort": "4s店"
},
{
"Id": 12105,
"DealerSN": "D4038",
"DisName": "仙游县阿强汽车销售服务有限公司",
"CityID": 11808,
"Tel": " ",
"Sales_tel": "0594-6709666",
"open_service": 0,
"Lng": "118.745127",
"Lat": "25.337493",
"Address": "仙游县赖店镇罗峰村",
"Dealer_type": 2,
"DisSort": "4s店"
},
{
"Id": 11803,
"DealerSN": "D4016",
"DisName": "泉州中达汽车销售服务有限公司",
"CityID": 11803,
"Tel": "0595-22350333",
"Sales_tel": "0595-22350888",
"open_service": 0,
"Lng": "118.532921",
"Lat": "24.912324",
"Address": "泉州市鲤城区南环路田洋村路口（雷克萨斯４Ｓ店旁）",
"Dealer_type": 1,
"DisSort": "4s店"
},
{
"Id": 11806,
"DealerSN": "D4019",
"DisName": "晋江市远通汽车销售服务有限责任公司",
"CityID": 11803,
"Tel": "0595-22926766",
"Sales_tel": "0595-88152888",
"open_service": 0,
"Lng": "118.572852",
"Lat": "24.795591",
"Address": "福建省晋江市泉安南路新华都商场南100米北京现代4S店",
"Dealer_type": 1,
"DisSort": "4s店"
},
{
"Id": 11812,
"DealerSN": "D4030",
"DisName": "泉州市华友汽车销售有限公司",
"CityID": 11803,
"Tel": "0595-27739999",
"Sales_tel": "0595-28157888",
"open_service": 0,
"Lng": "118.667629",
"Lat": "24.934672",
"Address": "泉州市丰泽区海峡体育中心北区商业街B幢",
"Dealer_type": 1,
"DisSort": "4s店"
},
{
"Id": 12192,
"DealerSN": "D4042",
"DisName": "泉州北现合众汽车销售有限公司",
"CityID": 11803,
"Tel": "0595-82252277",
"Sales_tel": "0595-82252288",
"open_service": 0,
"Lng": "118.611535",
"Lat": "24.773532",
"Address": "晋江市新塘街道荆山达狮雄汽车城北现合众店",
"Dealer_type": 2,
"DisSort": "4s店"
},
{
"Id": 12239,
"DealerSN": "D4036",
"DisName": "泉州国贸启润汽车销售服务有限公司",
"CityID": 11803,
"Tel": "0595-22621222",
"Sales_tel": "0595-22620333",
"open_service": 0,
"Lng": "118.551792",
"Lat": "24.876087",
"Address": "清濛开发区迎宾大道北京现代4S店",
"Dealer_type": 2,
"DisSort": "4s店"
},
{
"Id": 11817,
"DealerSN": "D4040",
"DisName": "三明吉诺中源汽车销售服务有限公司",
"CityID": 11817,
"Tel": "0598-8959900",
"Sales_tel": "0598-8950888",
"open_service": 0,
"Lng": "117.661206",
"Lat": "26.286224",
"Address": "福建省三明市新市北路闽中汽车城",
"Dealer_type": 1,
"DisSort": "4s店"
},
{
"Id": 11805,
"DealerSN": "D4018",
"DisName": "厦门国戎汽车销售服务有限公司",
"CityID": 11815,
"Tel": "0592-5703333",
"Sales_tel": "0592-5702222",
"open_service": 0,
"Lng": "118.123686",
"Lat": "24.525125",
"Address": "厦门市湖里区嘉禾路598号佳益工业园B栋底层",
"Dealer_type": 1,
"DisSort": "4s店"
},
{
"Id": 11811,
"DealerSN": "D4029",
"DisName": "厦门国贸启润汽车销售服务有限公司",
"CityID": 11815,
"Tel": "0592-5377555",
"Sales_tel": "0592-5767666",
"open_service": 0,
"Lng": "118.10506",
"Lat": "24.488809",
"Address": "厦门市思明区湖滨北路101号滨北汽车城之17 ",
"Dealer_type": 1,
"DisSort": "4s店"
},
{
"Id": 11815,
"DealerSN": "D4035",
"DisName": "厦门国贸宝润汽车服务有限公司",
"CityID": 11815,
"Tel": "0592-6880790",
"Sales_tel": "0592-6882188",
"open_service": 0,
"Lng": "118.015552",
"Lat": "24.496594",
"Address": "厦门市海沧区中沧东路8号",
"Dealer_type": 1,
"DisSort": "4s店"
},
{
"Id": 12233,
"DealerSN": "D4043",
"DisName": "漳州福丰汽车销售有限公司",
"CityID": 12233,
"Tel": "0596-6105777",
"Sales_tel": "0596-6181666",
"open_service": 0,
"Lng": "117.73709",
"Lat": "24.506666",
"Address": "龙文区水仙大街与迎宾路交叉口以西",
"Dealer_type": 2,
"DisSort": "4s店"
},
{
"Id": 12049,
"DealerSN": "D5124",
"DisName": "白银恒信华通汽车销售服务有限公司",
"CityID": 12049,
"Tel": "0943-8836345",
"Sales_tel": "0943-8836000",
"open_service": 0,
"Lng": "104.145139",
"Lat": "36.518718",
"Address": "白银市白银区中小企业创业基地",
"Dealer_type": 1,
"DisSort": "4s店"
},
{
"Id": 12045,
"DealerSN": "D5119",
"DisName": "嘉峪关市飞瑞汽车销售服务有限责任公司",
"CityID": 12045,
"Tel": "0937-6316909",
"Sales_tel": "0937-6318755",
"open_service": 0,
"Lng": "98.311138",
"Lat": "39.785589",
"Address": "甘肃省嘉峪关市钢城路968号(污水处理厂西侧）",
"Dealer_type": 1,
"DisSort": "4s店"
},
{
"Id": 12225,
"DealerSN": "D5133",
"DisName": "金昌市金奥顺驰商贸有限公司",
"CityID": 12225,
"Tel": "0935-8330309",
"Sales_tel": "0935-8330799",
"open_service": 0,
"Lng": "102.242841",
"Lat": "38.533244",
"Address": "金川区长沙路47号",
"Dealer_type": 2,
"DisSort": "4s店"
},
{
"Id": 12053,
"DealerSN": "D5129",
"DisName": "酒泉吉元利达汽车销售服务有限公司",
"CityID": 12053,
"Tel": "0937-2822555",
"Sales_tel": "0937-2822666",
"open_service": 0,
"Lng": "98.42893",
"Lat": "39.765806",
"Address": "酒泉市肃州区西郊工业园区纬一路9号",
"Dealer_type": 2,
"DisSort": "4s店"
},
{
"Id": 12046,
"DealerSN": "D5120",
"DisName": "兰州金岛兴合汽车销售服务有限公司",
"CityID": 12055,
"Tel": "0931-7706019",
"Sales_tel": "0931-7709999",
"open_service": 0,
"Lng": "103.637659",
"Lat": "36.144824",
"Address": "兰州市安宁区北滨河西路88号",
"Dealer_type": 1,
"DisSort": "4s店"
},
{
"Id": 12055,
"DealerSN": "D5132",
"DisName": "甘肃永丰北现汽车销售服务有限公司",
"CityID": 12055,
"Tel": "0931-2550111",
"Sales_tel": "0931-2551888",
"open_service": 0,
"Lng": "103.741667",
"Lat": "36.080329",
"Address": "兰州市七里河区南滨河中路1155号",
"Dealer_type": 1,
"DisSort": "4s店"
},
{
"Id": 12257,
"DealerSN": "D5130",
"DisName": "临夏州京华汽车销售有限公司",
"CityID": 12257,
"Tel": "0930-6662478",
"Sales_tel": "0930-6662476",
"open_service": 1,
"Lng": "103.242024",
"Lat": "35.591771",
"Address": "临夏市南龙镇牛津河大道穆斯林物流园区华仕捷汽车城",
"Dealer_type": 2,
"DisSort": "4s店"
},
{
"Id": 12048,
"DealerSN": "D5123",
"DisName": "平凉恒信华通汽车销售服务有限公司",
"CityID": 12048,
"Tel": "0933-8695553",
"Sales_tel": "0933-8695552",
"open_service": 0,
"Lng": "106.765065",
"Lat": "35.514938",
"Address": "工业园区东一路",
"Dealer_type": 1,
"DisSort": "4s店"
},
{
"Id": 12347,
"DealerSN": "D5134",
"DisName": "庆阳恒荣汽车销售服务有限公司",
"CityID": 12347,
"Tel": "0934-8665111",
"Sales_tel": "0934-8665000",
"open_service": 0,
"Lng": "107.635629",
"Lat": "35.726505",
"Address": "西峰区庆化大道大道南段（王岭煤场对面）",
"Dealer_type": 1,
"DisSort": "4s店"
},
{
"Id": 12047,
"DealerSN": "D5121",
"DisName": "天水永林汽车销售服务有限公司",
"CityID": 12047,
"Tel": "0938-6837111",
"Sales_tel": "0938-6837888",
"open_service": 0,
"Lng": "105.875891",
"Lat": "34.559901",
"Address": "天水市麦积区花牛镇花牛村（天水机场东侧）",
"Dealer_type": 1,
"DisSort": "4s店"
},
{
"Id": 12054,
"DealerSN": "D5131",
"DisName": "武威市泰和昌汽车销售服务有限公司",
"CityID": 12054,
"Tel": "0935-6988996\/6988998",
"Sales_tel": "0935-6988988",
"open_service": 0,
"Lng": "102.64188",
"Lat": "37.911538",
"Address": "甘肃省武威市凉州区南二环路28区(南入市广场斜对面）",
"Dealer_type": 2,
"DisSort": "4s店"
},
{
"Id": 12050,
"DealerSN": "D5125",
"DisName": "张掖市银通汽车销售有限公司",
"CityID": 12050,
"Tel": "0936-8683666",
"Sales_tel": "0936-8682666",
"open_service": 0,
"Lng": "100.486701",
"Lat": "38.970358",
"Address": "甘肃省张掖市甘州区昆仑大道东侧",
"Dealer_type": 1,
"DisSort": "4s店"
},
{
"Id": 12078,
"DealerSN": "D6230",
"DisName": "广西联泰汽车销售服务有限公司",
"CityID": 12078,
"Tel": "0776-2222090",
"Sales_tel": "0776-2222080",
"open_service": 0,
"Lng": "106.672489",
"Lat": "23.859356",
"Address": "百色市右江区进城大道与东环路交汇处",
"Dealer_type": 1,
"DisSort": "4s店"
},
{
"Id": 12079,
"DealerSN": "D6231",
"DisName": "北海金钰汽车销售服务有限公司",
"CityID": 12079,
"Tel": "0779-2665777",
"Sales_tel": "0779-2663999",
"open_service": 0,
"Lng": "109.177209",
"Lat": "21.503429",
"Address": "北海市南珠大道南地海江南对面（东风日产旁边）",
"Dealer_type": 1,
"DisSort": "4s店"
},
{
"Id": 12314,
"DealerSN": "D6234",
"DisName": "贵港市博途汽车销售服务有限公司",
"CityID": 12314,
"Tel": "0775-4359988",
"Sales_tel": "0775-4350888",
"open_service": 0,
"Lng": "109.538896",
"Lat": "23.120669",
"Address": "贵港市港北区根竹乡江口村",
"Dealer_type": 1,
"DisSort": "4s店"
},
{
"Id": 12067,
"DealerSN": "D6216",
"DisName": "桂林顺景汽车销售有限公司",
"CityID": 12077,
"Tel": "0773－2638999",
"Sales_tel": "0773－2636111",
"open_service": 0,
"Lng": "110.31426",
"Lat": "25.353738",
"Address": "桂林市八里街经济开发区灵川大道56号",
"Dealer_type": 1,
"DisSort": "4s店"
},
{
"Id": 12077,
"DealerSN": "D6229",
"DisName": "桂林万亚汽车销售有限公司",
"CityID": 12077,
"Tel": "0773-2555222",
"Sales_tel": "0773-2555111",
"open_service": 0,
"Lng": "110.238552",
"Lat": "25.264012",
"Address": "桂林市秀峰区机场路路口村东南侧",
"Dealer_type": 1,
"DisSort": "4s店"
},
{
"Id": 12076,
"DealerSN": "D6228",
"DisName": "河池明远汽车有限公司",
"CityID": 12076,
"Tel": "0778-2272988",
"Sales_tel": "0778-2272666",
"open_service": 0,
"Lng": "108.095735",
"Lat": "24.687756",
"Address": "河池市东江镇百旺社区中村（金城江区人民法院对面）",
"Dealer_type": 1,
"DisSort": "4s店"
},
{
"Id": 12416,
"DealerSN": "S6217",
"DisName": "广西贺州市润丰小汽车服务中心",
"CityID": 12416,
"Tel": "0774-5128909",
"Sales_tel": "",
"open_service": 0,
"Lng": "111.56825",
"Lat": "24.415944444444445",
"Address": "广西贺州市八步区八达中路188号",
"Dealer_type": 4,
"DisSort": "维修站"
},
{
"Id": 12071,
"DealerSN": "D6223",
"DisName": "柳州市恒翔汽车销售服务有限公司",
"CityID": 12071,
"Tel": "0772-8252800",
"Sales_tel": "0772-8250988",
"open_service": 0,
"Lng": "109.442895",
"Lat": "24.364247",
"Address": "柳州市东环大道161号",
"Dealer_type": 1,
"DisSort": "4s店"
},
{
"Id": 12214,
"DealerSN": "D6233",
"DisName": "柳州胜现汽车销售有限公司",
"CityID": 12071,
"Tel": "0772-8803999",
"Sales_tel": "0772-8803888",
"open_service": 0,
"Lng": "109.370226",
"Lat": "24.313982",
"Address": "柳州市柳南区广西汽车贸易园广汽路5号",
"Dealer_type": 2,
"DisSort": "4s店"
},
{
"Id": 12068,
"DealerSN": "D6217",
"DisName": "广西通源汽车销售服务有限公司",
"CityID": 12068,
"Tel": "0771-4884889",
"Sales_tel": "0771-4884881",
"open_service": 0,
"Lng": "108.303889",
"Lat": "22.782243",
"Address": "广西南宁市江南区白沙大道67号",
"Dealer_type": 1,
"DisSort": "4s店"
},
{
"Id": 12069,
"DealerSN": "D6218",
"DisName": "广西鑫广达汽车贸易有限公司",
"CityID": 12068,
"Tel": "0771-3218119",
"Sales_tel": "0771-3218115\/116",
"open_service": 0,
"Lng": "108.27794",
"Lat": "22.868466",
"Address": "南宁市高新区科园大道59号",
"Dealer_type": 1,
"DisSort": "4s店"
},
{
"Id": 12350,
"DealerSN": "D6236",
"DisName": "广西宝资润鑫汽车销售服务有限公司",
"CityID": 12068,
"Tel": "0771-4889122",
"Sales_tel": "0771-4899199",
"open_service": 0,
"Lng": "108.25116",
"Lat": "22.777915",
"Address": "江南区南站大道38号",
"Dealer_type": 1,
"DisSort": "4s店"
},
{
"Id": 12359,
"DealerSN": "D6235",
"DisName": "南宁恒信路通汽车销售服务有限公司",
"CityID": 12068,
"Tel": "0771-4928448",
"Sales_tel": "0771-4928338",
"open_service": 0,
"Lng": "108.219273",
"Lat": "22.841508",
"Address": "南宁市高新区罗文大道50号",
"Dealer_type": 1,
"DisSort": "4s店"
},
{
"Id": 12381,
"DealerSN": "D6238",
"DisName": "广西通跃汽车销售服务有限公司",
"CityID": 12068,
"Tel": "0771-3186706",
"Sales_tel": "0771-3186701",
"open_service": 0,
"Lng": "108.396341",
"Lat": "22.874553",
"Address": "昆仑大道89号",
"Dealer_type": 1,
"DisSort": "4s店"
},
{
"Id": 12073,
"DealerSN": "D6225",
"DisName": "钦州市恒骋汽车销售服务有限公司",
"CityID": 12073,
"Tel": "0777-5312088",
"Sales_tel": "0777-5312188",
"open_service": 0,
"Lng": "108.650643",
"Lat": "21.965019",
"Address": "广西钦州市扬帆北大道华龙街6-3号",
"Dealer_type": 1,
"DisSort": "4s店"
},
{
"Id": 12074,
"DealerSN": "D6226",
"DisName": "梧州金欣汽车有限公司",
"CityID": 12074,
"Tel": "0774-3897777",
"Sales_tel": "0774-3817777",
"open_service": 0,
"Lng": "111.412398",
"Lat": "23.480565",
"Address": "梧州市万秀区上都连冲（车管所旁）",
"Dealer_type": 1,
"DisSort": "4s店"
},
{
"Id": 12070,
"DealerSN": "D6222",
"DisName": "广西玉林市得利汽车销售服务有限公司",
"CityID": 12374,
"Tel": "0775－2693366",
"Sales_tel": "0775-2693322",
"open_service": 0,
"Lng": "110.200993",
"Lat": "22.636461",
"Address": "玉林市二环东路31号",
"Dealer_type": 1,
"DisSort": "4s店"
},
{
"Id": 12374,
"DealerSN": "D6237",
"DisName": "广西玉林市通源汽车销售服务有限公司",
"CityID": 12374,
"Tel": "0775-2628885",
"Sales_tel": "0775-2628886",
"open_service": 0,
"Lng": "110.16527",
"Lat": "22.654761",
"Address": "一环北路279号玉柴汽车城内",
"Dealer_type": 1,
"DisSort": "4s店"
},
{
"Id": 11745,
"DealerSN": "D3623",
"DisName": "安顺恒信德龙汽车销售服务有限公司",
"CityID": 11745,
"Tel": "0851-33604999",
"Sales_tel": "0853-33604888",
"open_service": 0,
"Lng": "106.00837",
"Lat": "26.280271",
"Address": "贵州省安顺市西秀区工业园区二六路1.6公里处",
"Dealer_type": 1,
"DisSort": "4s店"
},
{
"Id": 11750,
"DealerSN": "D3628",
"DisName": "贵州佰润京汉汽车销售服务有限公司",
"CityID": 11750,
"Tel": "0857-8630777",
"Sales_tel": "0857-8286888",
"open_service": 0,
"Lng": "105.395513",
"Lat": "27.267771",
"Address": "毕节市碧阳大道中段小坝路口",
"Dealer_type": 2,
"DisSort": "4s店"
},
{
"Id": 11748,
"DealerSN": "D3626",
"DisName": "都匀恒信华通汽车销售服务有限公司",
"CityID": 11748,
"Tel": "0854-8314448",
"Sales_tel": "0854-8315558",
"open_service": 0,
"Lng": "107.46675",
"Lat": "26.316094",
"Address": "甘塘产业园区文明村佘家庄",
"Dealer_type": 1,
"DisSort": "4s店"
},
{
"Id": 11739,
"DealerSN": "D3616",
"DisName": "贵州乾通北现汽车销售服务有限公司",
"CityID": 11752,
"Tel": "0851-83713555",
"Sales_tel": "0851-83817555",
"open_service": 0,
"Lng": "106.750239",
"Lat": "26.406129",
"Address": "贵州省贵阳市花溪区孟关乡孟关国际汽贸城内",
"Dealer_type": 1,
"DisSort": "4s店"
},
{
"Id": 11741,
"DealerSN": "D3619",
"DisName": " 贵州宏健东汽车销售服务有限公司",
"CityID": 11752,
"Tel": "0851-83809951",
"Sales_tel": "0851-83809912",
"open_service": 0,
"Lng": "106.693226",
"Lat": "26.516161",
"Address": "贵州省贵阳市小河区西南环线北侧（小河21路公交车终点站旁）",
"Dealer_type": 1,
"DisSort": "4s店"
},
{
"Id": 11742,
"DealerSN": "D3620",
"DisName": "贵州安泰和汽车销售有限公司",
"CityID": 11752,
"Tel": "0851-88589111",
"Sales_tel": "0851-88589111",
"open_service": 0,
"Lng": "106.760844",
"Lat": "26.631287",
"Address": "贵阳市乌当区新添大道北段29号",
"Dealer_type": 1,
"DisSort": "4s店"
},
{
"Id": 11752,
"DealerSN": "D3630",
"DisName": "贵州华瑞兴汽车贸易服务有限公司",
"CityID": 11752,
"Tel": "0851-84848187",
"Sales_tel": "0851-84138317",
"open_service": 0,
"Lng": "106.639468",
"Lat": "26.597081",
"Address": "贵州省贵阳市云岩区金阳大道南段118号华通汽车城北现店",
"Dealer_type": 1,
"DisSort": "4s店"
},
{
"Id": 11747,
"DealerSN": "D3625",
"DisName": "凯里恒信德龙汽车销售服务有限公司",
"CityID": 11747,
"Tel": "0855-3970668",
"Sales_tel": "0855-3970666",
"open_service": 0,
"Lng": "107.918559",
"Lat": "26.536445",
"Address": "贵州省凯里市鸭塘镇舟溪路口南300米（原职院驾校处）",
"Dealer_type": 1,
"DisSort": "4s店"
},
{
"Id": 11744,
"DealerSN": "D3622",
"DisName": "六盘水远现汽车销售服务有限公司",
"CityID": 11744,
"Tel": "0858-8606000",
"Sales_tel": "0858-6621000",
"open_service": 0,
"Lng": "104.916794",
"Lat": "26.540655",
"Address": "贵州省六盘水市红桥新区红山大道八号路段",
"Dealer_type": 1,
"DisSort": "4s店"
},
{
"Id": 12285,
"DealerSN": "D3632",
"DisName": "贵州黔道汽车产业投资有限责任公司",
"CityID": 11744,
"Tel": "0858-2186777",
"Sales_tel": "0858-2186416",
"open_service": 0,
"Lng": "104.457849",
"Lat": "25.726218",
"Address": "贵州盘县红果镇盘州大道",
"Dealer_type": 1,
"DisSort": "4s店"
},
{
"Id": 11743,
"DealerSN": "D3621",
"DisName": "铜仁恒信华通汽车销售服务有限公司",
"CityID": 11743,
"Tel": "0856-3237555",
"Sales_tel": "0856-3521555",
"open_service": 0,
"Lng": "109.172369",
"Lat": "27.690652",
"Address": "铜仁市万山区谢桥新区塘家寨村火焰塘村民组63号铜大高速出入口（铜仁南）下高速前行200米",
"Dealer_type": 1,
"DisSort": "4s店"
},
{
"Id": 11746,
"DealerSN": "D3624",
"DisName": "贵州林兴汽车销售服务有限公司",
"CityID": 11746,
"Tel": "0859-3379799",
"Sales_tel": "0859-3379666",
"open_service": 0,
"Lng": "104.865879",
"Lat": "25.129152",
"Address": "贵州省兴义市坪东大道延伸段木贾物流园",
"Dealer_type": 1,
"DisSort": "4s店"
},
{
"Id": 11740,
"DealerSN": "D3618",
"DisName": "遵义市千乘汽车销售服务有限公司",
"CityID": 11740,
"Tel": "0851-28425000",
"Sales_tel": "0852-28430800",
"open_service": 0,
"Lng": "106.889638",
"Lat": "27.636924",
"Address": "贵州省遵义市遵南大道北段东侧",
"Dealer_type": 1,
"DisSort": "4s店"
},
{
"Id": 11751,
"DealerSN": "D3629",
"DisName": "遵义市普汇汽车销售服务有限公司",
"CityID": 11740,
"Tel": "0851-23160002",
"Sales_tel": "0851-23160222",
"open_service": 0,
"Lng": "106.950267",
"Lat": "27.74436",
"Address": "遵义市汇川区汇川大道南段",
"Dealer_type": 2,
"DisSort": "4s店"
},
{
"Id": 12275,
"DealerSN": "D3631",
"DisName": "遵义市汇工汽车销售服务有限公司",
"CityID": 11740,
"Tel": "0851-23160002",
"Sales_tel": "0851-28912226",
"open_service": 0,
"Lng": "106.928447",
"Lat": "27.785221",
"Address": "贵州省遵义市汇川区董公寺镇和平村汇川汽博城第18号",
"Dealer_type": 1,
"DisSort": "4s店"
},
{
"Id": 11905,
"DealerSN": "D4416",
"DisName": "海南京诚汽车销售服务有限公司",
"CityID": 11907,
"Tel": "0898-68636363",
"Sales_tel": "0898-68631088",
"open_service": 0,
"Lng": "110.297082",
"Lat": "20.001799",
"Address": "海口市南海大道西8号",
"Dealer_type": 1,
"DisSort": "4s店"
},
{
"Id": 11907,
"DealerSN": "D4418",
"DisName": "海南华诚汽车销售服务有限公司",
"CityID": 11907,
"Tel": "0898-65720331",
"Sales_tel": "0898-65720586",
"open_service": 0,
"Lng": "110.418678",
"Lat": "19.997059",
"Address": "海口市琼山区琼山大道文雅经济社",
"Dealer_type": 1,
"DisSort": "4s店"
},
{
"Id": 11906,
"DealerSN": "D4417",
"DisName": "三亚骏诚汽车销售服务有限公司",
"CityID": 11906,
"Tel": "0898-88665223",
"Sales_tel": "0898-88665155",
"open_service": 0,
"Lng": "110.418678",
"Lat": "19.997059",
"Address": "三亚市迎宾大道龙坡村路口西侧389号",
"Dealer_type": 1,
"DisSort": "4s店"
},
{
"Id": 11959,
"DealerSN": "D4818",
"DisName": "保定轩宇世纪汽车贸易有限公司",
"CityID": 11959,
"Tel": "0312-3336986",
"Sales_tel": "0312-3336984",
"open_service": 0,
"Lng": "115.47536",
"Lat": "38.909825",
"Address": "保定市朝阳北大街1233号",
"Dealer_type": 1,
"DisSort": "4s店"
},
{
"Id": 11970,
"DealerSN": "D4830",
"DisName": "保定市天华汽车贸易有限公司",
"CityID": 11959,
"Tel": "0312－5918858",
"Sales_tel": "0312-5918899",
"open_service": 0,
"Lng": "115.513699",
"Lat": "38.83514",
"Address": "保定市长城南大街1485号",
"Dealer_type": 1,
"DisSort": "4s店"
},
{
"Id": 11971,
"DealerSN": "D4832",
"DisName": "涿州市朝阳世纪汽车销售服务公司",
"CityID": 11959,
"Tel": "0312－3638222",
"Sales_tel": "0312-3638111",
"open_service": 0,
"Lng": "115.969626",
"Lat": "39.487348",
"Address": "涿州市107国道桃园路西口北京现代4S店",
"Dealer_type": 1,
"DisSort": "4s店"
},
{
"Id": 11988,
"DealerSN": "D4852",
"DisName": "保定市嘉通汽车销售有限公司",
"CityID": 11959,
"Tel": "0312-5953333",
"Sales_tel": "0312-5930333",
"open_service": 0,
"Lng": "115.451223",
"Lat": "38.826958",
"Address": "保定市南二环路929号",
"Dealer_type": 2,
"DisSort": "4s店"
},
{
"Id": 12117,
"DealerSN": "D4868",
"DisName": "保定北健信诚汽车销售服务有限公司",
"CityID": 11959,
"Tel": "0312-5632111",
"Sales_tel": " 0312-6548888",
"open_service": 1,
"Lng": "115.543213",
"Lat": "39.359942",
"Address": "易县章村",
"Dealer_type": 1,
"DisSort": "4s店"
},
{
"Id": 12422,
"DealerSN": "S4822",
"DisName": "涞源县天利车业",
"CityID": 11959,
"Tel": "0312-7329100",
"Sales_tel": "",
"open_service": 0,
"Lng": "114.72127777777777",
"Lat": "39.34547222222222",
"Address": "河北省保定市涞源县108国道泉坊转盘往西200米路北",
"Dealer_type": 4,
"DisSort": "维修站"
},
{
"Id": 12423,
"DealerSN": "S4823",
"DisName": "定州市九洲汽车修理厂",
"CityID": 11959,
"Tel": "0312-2311999",
"Sales_tel": "",
"open_service": 0,
"Lng": "114.99880555555555",
"Lat": "38.532222222222224",
"Address": "河北省定州市清风北路路东300米",
"Dealer_type": 4,
"DisSort": "维修站"
},
{
"Id": 11972,
"DealerSN": "D4834",
"DisName": "沧州恒源汽车销售服务有限公司",
"CityID": 11974,
"Tel": "0317-3505155",
"Sales_tel": "0317-3505005",
"open_service": 0,
"Lng": "116.90237",
"Lat": "38.292518",
"Address": "沧州市新华区长芦南大道代家坟西侧（东外环）",
"Dealer_type": 1,
"DisSort": "4s店"
},
{
"Id": 11974,
"DealerSN": "D4837",
"DisName": "沧州安捷汽车销售服务有限公司",
"CityID": 11974,
"Tel": "0317-5673777",
"Sales_tel": "0317-5673666",
"open_service": 0,
"Lng": "116.855696",
"Lat": "38.353918",
"Address": "沧州市运河区小王庄镇韩家场村",
"Dealer_type": 1,
"DisSort": "4s店"
},
{
"Id": 11980,
"DealerSN": "D4843",
"DisName": "沧州市蓝池泰龙汽车销售服务有限公司",
"CityID": 11974,
"Tel": "0317-2051222",
"Sales_tel": "0317-2057333",
"open_service": 0,
"Lng": "116.845129",
"Lat": "38.279787",
"Address": "沧州市运河区海河路与朝阳大街交叉口东北侧",
"Dealer_type": 1,
"DisSort": "4s店"
},
{
"Id": 11985,
"DealerSN": "D4849",
"DisName": "任丘市宏丰汽车销售服务有限公司",
"CityID": 11974,
"Tel": "0317-2627288",
"Sales_tel": "0317-2627555",
"open_service": 0,
"Lng": "116.127358",
"Lat": "38.748206",
"Address": "任丘市经济技术开发区（迎宾道东侧）",
"Dealer_type": 1,
"DisSort": "4s店"
},
{
"Id": 11998,
"DealerSN": "D4862",
"DisName": "承德万森汽车销售有限公司",
"CityID": 11998,
"Tel": "0314-7578668",
"Sales_tel": "0314-5911111",
"open_service": 0,
"Lng": "117.842465",
"Lat": "41.025789",
"Address": "河北省承德市双滦区松狮线13号",
"Dealer_type": 1,
"DisSort": "4s店"
},
{
"Id": 11978,
"DealerSN": "D4841",
"DisName": "邯郸市华宝汽车销售服务有限公司",
"CityID": 11978,
"Tel": "0310-5509550",
"Sales_tel": "0310-5509555",
"open_service": 0,
"Lng": "114.435725",
"Lat": "36.572329",
"Address": "邯郸市邯山区南环路与机场路交叉口西行2公里路南（赵王城遗址公园南门对面）",
"Dealer_type": 1,
"DisSort": "4s店"
},
{
"Id": 12348,
"DealerSN": "D4879",
"DisName": "武安市仁丰汽车销售服务有限公司",
"CityID": 11978,
"Tel": "0310-5631111",
"Sales_tel": "0310-5631333",
"open_service": 0,
"Lng": "114.243098",
"Lat": "36.712563",
"Address": "武安市河渠村东邯武复线与下河路交叉路口东北角",
"Dealer_type": 1,
"DisSort": "4s店"
},
{
"Id": 12357,
"DealerSN": "D4878",
"DisName": "邯郸市峰和汽车销售服务有限公司",
"CityID": 11978,
"Tel": "0310-5511789",
"Sales_tel": "0310-5511678",
"open_service": 0,
"Lng": "114.473111",
"Lat": "36.656809",
"Address": "河北省邯郸市复兴区北环路88号（现代汽贸城内）",
"Dealer_type": 1,
"DisSort": "4s店"
},
{
"Id": 12360,
"DealerSN": "D4880",
"DisName": "邯郸市嘉和汽车销售服务有限公司",
"CityID": 11978,
"Tel": "0310-7123111",
"Sales_tel": "0310-7121888",
"open_service": 0,
"Lng": "114.542647",
"Lat": "36.649098",
"Address": "河北省邯郸市经济开发区东环路北头路东（联华汽车广场院内）",
"Dealer_type": 1,
"DisSort": "4s店"
},
{
"Id": 11965,
"DealerSN": "D4825",
"DisName": "衡水德昌汽车贸易有限公司",
"CityID": 11979,
"Tel": "0318－7098555",
"Sales_tel": "0318-7098666",
"open_service": 0,
"Lng": "115.64435",
"Lat": "37.743832",
"Address": "河北省衡水市开发区昌明南大街369号",
"Dealer_type": 1,
"DisSort": "4s店"
},
{
"Id": 11979,
"DealerSN": "D4842",
"DisName": "衡水衡冲汽车销售服务有限公司",
"CityID": 11979,
"Tel": "0318-2232988",
"Sales_tel": "0318-2236288",
"open_service": 0,
"Lng": "115.713051",
"Lat": "37.775791",
"Address": "衡水市北外环与榕花大街交叉口东行300米路北",
"Dealer_type": 1,
"DisSort": "4s店"
},
{
"Id": 11967,
"DealerSN": "D4827",
"DisName": "廊坊市瑞龙伟业汽车销售有限公司",
"CityID": 11967,
"Tel": "0316－2057888",
"Sales_tel": "0316-2211111",
"open_service": 0,
"Lng": "116.743772",
"Lat": "39.525866",
"Address": "河北省廊坊市广阳区东外环路188号",
"Dealer_type": 1,
"DisSort": "4s店"
},
{
"Id": 11973,
"DealerSN": "D4835",
"DisName": "霸州市亿龙汽车销售服务有限公司",
"CityID": 11967,
"Tel": "0316-7110995",
"Sales_tel": "0316-7288666",
"open_service": 0,
"Lng": "116.395342",
"Lat": "39.095622",
"Address": "河北省霸州市城内四街106国道西侧上海大众北侧",
"Dealer_type": 1,
"DisSort": "4s店"
},
{
"Id": 11990,
"DealerSN": "D4854",
"DisName": "廊坊万运汽车销售有限公司",
"CityID": 11967,
"Tel": "0316-2803188\/99",
"Sales_tel": "0316-2559999",
"open_service": 0,
"Lng": "116.762092",
"Lat": "39.57988",
"Address": "河北省廊坊市开发区金源道80号",
"Dealer_type": 1,
"DisSort": "4s店"
},
{
"Id": 11999,
"DealerSN": "D4863",
"DisName": "三河市和鑫汽车销售有限公司",
"CityID": 11967,
"Tel": "0316-3301666",
"Sales_tel": "0316-3301999",
"open_service": 0,
"Lng": "116.862953",
"Lat": "39.993236",
"Address": "三河市高楼镇燕灵路南侧",
"Dealer_type": 1,
"DisSort": "4s店"
},
{
"Id": 11958,
"DealerSN": "D4817",
"DisName": "秦皇岛瑞通佰盛汽车销售服务有限公司",
"CityID": 11958,
"Tel": "0335-5999958",
"Sales_tel": "0335-5303333",
"open_service": 0,
"Lng": "119.535978",
"Lat": "39.944955",
"Address": "河北省秦皇岛市经济技术开发区峨眉山北路新管委西侧",
"Dealer_type": 1,
"DisSort": "4s店"
},
{
"Id": 12208,
"DealerSN": "D4874",
"DisName": "秦皇岛荣德汽车服务有限公司",
"CityID": 11958,
"Tel": "0335-3536789",
"Sales_tel": "0335-3535678",
"open_service": 0,
"Lng": "119.635706",
"Lat": "39.97484",
"Address": "秦皇岛市海港区北环路33号",
"Dealer_type": 2,
"DisSort": "4s店"
},
{
"Id": 11957,
"DealerSN": "D4816",
"DisName": "河北骏通汽车贸易有限公司",
"CityID": 12204,
"Tel": "0311－86125611",
"Sales_tel": "0311-86126999",
"open_service": 1,
"Lng": "114.522297",
"Lat": "38.007957",
"Address": "石家庄市南二环东路5号",
"Dealer_type": 1,
"DisSort": "4s店"
},
{
"Id": 11960,
"DealerSN": "D4819",
"DisName": "河北盛文汽车贸易有限公司",
"CityID": 12204,
"Tel": "0311－85677177",
"Sales_tel": "0311-85610640",
"open_service": 1,
"Lng": "114.556687",
"Lat": "38.079797",
"Address": "石家庄市北二环东路86号",
"Dealer_type": 1,
"DisSort": "4s店"
},
{
"Id": 11968,
"DealerSN": "D4828",
"DisName": "河北广德行汽车销售服务有限公司",
"CityID": 12204,
"Tel": "0311-83807888",
"Sales_tel": "0311-83831234\/0311-83838588",
"open_service": 1,
"Lng": "114.445218",
"Lat": "38.021539",
"Address": "石家庄西二环与新石中路交叉口东北角",
"Dealer_type": 1,
"DisSort": "4s店"
},
{
"Id": 11977,
"DealerSN": "D4840",
"DisName": "河北天徽志远汽车销售服务有限公司",
"CityID": 12204,
"Tel": "0311-89255255",
"Sales_tel": "0311-89255808 ",
"open_service": 1,
"Lng": "114.456119",
"Lat": "38.101724",
"Address": "石家庄市新华区西三庄大街185号",
"Dealer_type": 1,
"DisSort": "4s店"
},
{
"Id": 11987,
"DealerSN": "D4851",
"DisName": "河北国和众现达汽车销售服务有限公司",
"CityID": 12204,
"Tel": "0311-85818388",
"Sales_tel": "0311-85817788",
"open_service": 1,
"Lng": "114.578802",
"Lat": "38.04174",
"Address": "石家庄市裕华区裕华东路166号",
"Dealer_type": 1,
"DisSort": "4s店"
},
{
"Id": 11996,
"DealerSN": "D4860",
"DisName": "河北天松汽车贸易有限公司 ",
"CityID": 12204,
"Tel": "0311-88237888",
"Sales_tel": "0311-88237887",
"open_service": 1,
"Lng": "114.633458",
"Lat": "38.045949",
"Address": "高新区华山街121号",
"Dealer_type": 1,
"DisSort": "4s店"
},
{
"Id": 12204,
"DealerSN": "D4872",
"DisName": "河北翼路翔汽车贸易有限公司",
"CityID": 12204,
"Tel": "0311-88580555",
"Sales_tel": "0311-88580333",
"open_service": 0,
"Lng": "114.516444",
"Lat": "38.007043",
"Address": "南环路北交警大队东临",
"Dealer_type": 2,
"DisSort": "4s店"
},
{
"Id": 12222,
"DealerSN": "D4875",
"DisName": "河北致祥汽车销售有限公司",
"CityID": 12204,
"Tel": " ",
"Sales_tel": "0311--84481888",
"open_service": 0,
"Lng": "115.081866",
"Lat": "38.03118",
"Address": "河北省石家庄市晋州市中兴路与东环路交叉口西北角",
"Dealer_type": 2,
"DisSort": "4s店"
},
{
"Id": 11962,
"DealerSN": "D4821",
"DisName": "唐山海洋汽车服务有限公司",
"CityID": 11964,
"Tel": "0315-2989955",
"Sales_tel": "0315-2989911",
"open_service": 0,
"Lng": "118.261923",
"Lat": "39.633352",
"Address": "唐山市新华东道与开越路交叉口路南（市新车管所南0",
"Dealer_type": 1,
"DisSort": "4s店"
},
{
"Id": 11964,
"DealerSN": "D4823",
"DisName": "唐山冀东广大汽车销售服务有限公司",
"CityID": 11964,
"Tel": "0315-2960711",
"Sales_tel": "0315-2960611",
"open_service": 0,
"Lng": "118.203659",
"Lat": "39.600231",
"Address": "唐山市路南区唐柏路158号",
"Dealer_type": 1,
"DisSort": "4s店"
},
{
"Id": 11975,
"DealerSN": "D4838",
"DisName": "唐山庞大广盛汽车销售服务有限公司",
"CityID": 11964,
"Tel": "0315-3852298",
"Sales_tel": "0315-3852098",
"open_service": 0,
"Lng": "118.203659",
"Lat": "39.600231",
"Address": "唐山市高新区新城子",
"Dealer_type": 1,
"DisSort": "4s店"
},
{
"Id": 12199,
"DealerSN": "D4873",
"DisName": "唐山荣园汽车销售服务有限公司",
"CityID": 11964,
"Tel": "0315-3159099",
"Sales_tel": "0315-3158811",
"open_service": 0,
"Lng": "118.184283",
"Lat": "39.673541",
"Address": "唐山市机场路立交桥北侧荣川汽车园区",
"Dealer_type": 2,
"DisSort": "4s店"
},
{
"Id": 11963,
"DealerSN": "D4822",
"DisName": "邢台京鹏贸易有限公司",
"CityID": 11963,
"Tel": "0319－3222155",
"Sales_tel": "0319-3215896",
"open_service": 0,
"Lng": "114.526416",
"Lat": "37.111325",
"Address": "邢台市迎宾路10号",
"Dealer_type": 1,
"DisSort": "4s店"
},
{
"Id": 11981,
"DealerSN": "D4844",
"DisName": "邢台德翔汽车服务有限公司",
"CityID": 11963,
"Tel": "0319--7656999",
"Sales_tel": "0319--7656888",
"open_service": 0,
"Lng": "114.642161",
"Lat": "37.109943",
"Address": "邢台市任县河头村西侧滏阳路南侧",
"Dealer_type": 1,
"DisSort": "4s店"
},
{
"Id": 11997,
"DealerSN": "D4861",
"DisName": "邢台蓝池洋龙汽车销售服务有限公司",
"CityID": 11963,
"Tel": "0319-5558858",
"Sales_tel": "0319-5558880",
"open_service": 0,
"Lng": "114.458243",
"Lat": "37.104453",
"Address": "邢台市桥西区汽车文化名城D-3-3",
"Dealer_type": 1,
"DisSort": "4s店"
},
{
"Id": 11966,
"DealerSN": "D4826",
"DisName": "张家口美华汽车贸易有限公司",
"CityID": 12227,
"Tel": "0313-4087888",
"Sales_tel": "0313-4087666",
"open_service": 0,
"Lng": "114.616906",
"Lat": "39.840853",
"Address": "张家口市高新区胜利南路105号",
"Dealer_type": 1,
"DisSort": "4s店"
},
{
"Id": 11976,
"DealerSN": "D4839",
"DisName": "张家口市泰成达汽车销售服务有限公司",
"CityID": 12227,
"Tel": "0313-4052666",
"Sales_tel": "0313-2311988",
"open_service": 0,
"Lng": "114.927773",
"Lat": "40.814984",
"Address": "张家口市桥东区东兴街龙泉广场南1号",
"Dealer_type": 1,
"DisSort": "4s店"
},
{
"Id": 12227,
"DealerSN": "D4876",
"DisName": "张家口迪悦汽车销售有限公司",
"CityID": 12227,
"Tel": "0313-7019922",
"Sales_tel": "0313-7019932",
"open_service": 0,
"Lng": "114.616634",
"Lat": "39.844593",
"Address": "河北省张家口市蔚县蔚州镇东盛南街路东",
"Dealer_type": 2,
"DisSort": "4s店"
},
{
"Id": 11675,
"DealerSN": "D3423",
"DisName": "安阳市福尔福汽车销售服务有限责任公司",
"CityID": 11675,
"Tel": "0372-3377777",
"Sales_tel": "0372-3376666",
"open_service": 0,
"Lng": "114.364922",
"Lat": "36.077285",
"Address": "高新区文昌大道中段",
"Dealer_type": 1,
"DisSort": "4s店"
},
{
"Id": 11695,
"DealerSN": "D3445",
"DisName": "安阳市福尔福万源汽贸有限公司",
"CityID": 11675,
"Tel": "0372-3333777",
"Sales_tel": "0372-3333666",
"open_service": 0,
"Lng": "114.333615",
"Lat": "36.088777",
"Address": "安阳市龙安区安彩大道中段路北",
"Dealer_type": 1,
"DisSort": "4s店"
},
{
"Id": 11711,
"DealerSN": "D3462",
"DisName": "安阳威佳佳扬汽车销售服务有限公司",
"CityID": 11675,
"Tel": "0372-2228333",
"Sales_tel": "0372-2229111",
"open_service": 0,
"Lng": "114.437996",
"Lat": "36.102411",
"Address": "安阳市城乡一体化示范区（新区）文峰大道与崇义路交叉口南侧",
"Dealer_type": 1,
"DisSort": "4s店"
},
{
"Id": 12364,
"DealerSN": "D3475",
"DisName": "滑县中州汽车销售服务有限公司",
"CityID": 11675,
"Tel": "0372-5570999",
"Sales_tel": "0372-5570888",
"open_service": 0,
"Lng": "114.600382",
"Lat": "35.571242",
"Address": "滑县中州大道与东环路交叉口德众汽车园北京现代",
"Dealer_type": 1,
"DisSort": "4s店"
},
{
"Id": 11680,
"DealerSN": "D3430",
"DisName": "鹤壁市鹤海汽车销售服务有限公司",
"CityID": 11680,
"Tel": "0392-2166669",
"Sales_tel": "0392-2166668",
"open_service": 0,
"Lng": "114.309493",
"Lat": "35.764573",
"Address": "河南省鹤壁市淇滨区黎阳路与嵩山路交叉口向北100米路东",
"Dealer_type": 1,
"DisSort": "4s店"
},
{
"Id": 11682,
"DealerSN": "D3432",
"DisName": "济源市浩轩汽车贸易有限公司",
"CityID": 11682,
"Tel": "0391-6607666",
"Sales_tel": "0391-6606298",
"open_service": 0,
"Lng": "112.648842",
"Lat": "35.093326",
"Address": "河南省济源市济新路交警大队东500米路北",
"Dealer_type": 1,
"DisSort": "4s店"
},
{
"Id": 11676,
"DealerSN": "D3424",
"DisName": "焦作市博大伟业汽车销售有限公司",
"CityID": 12311,
"Tel": "0391-3566099",
"Sales_tel": "0391-3566066",
"open_service": 0,
"Lng": "113.265126",
"Lat": "35.178739",
"Address": "焦作市高新区迎宾路鑫博大汽贸城",
"Dealer_type": 1,
"DisSort": "4s店"
},
{
"Id": 11702,
"DealerSN": "D3452",
"DisName": "焦作市博大兴业汽车销售有限公司",
"CityID": 12311,
"Tel": "0391-3690999",
"Sales_tel": "0391-3890888",
"open_service": 0,
"Lng": "113.236205",
"Lat": "35.212122",
"Address": "河南省焦作市丰收路与孟州路交叉口北50米路西",
"Dealer_type": 1,
"DisSort": "4s店"
},
{
"Id": 12311,
"DealerSN": "D3480",
"DisName": "武陟县通泰汽车销售服务有限公司",
"CityID": 12311,
"Tel": "0391-6319222",
"Sales_tel": "0391-6319000",
"open_service": 0,
"Lng": "113.418016",
"Lat": "35.116962",
"Address": "武陟县龙源路与黄河大道交叉口西100米（中星之宝院内）",
"Dealer_type": 1,
"DisSort": "4s店"
},
{
"Id": 11685,
"DealerSN": "D3435",
"DisName": "开封天翔汽车销售服务有限公司",
"CityID": 12224,
"Tel": "0371-23366999",
"Sales_tel": "0371-23367777",
"open_service": 0,
"Lng": "114.292996",
"Lat": "34.79244",
"Address": "开封市宋城路中段(豪德转盘向西2公里）",
"Dealer_type": 1,
"DisSort": "4s店"
},
{
"Id": 12224,
"DealerSN": "D3474",
"DisName": "开封天行健汽车销售服务有限公司",
"CityID": 12224,
"Tel": "0371-23229777",
"Sales_tel": "0371-23229666",
"open_service": 0,
"Lng": "114.301276",
"Lat": "34.783589",
"Address": "金明大道与魏都路交叉口向西500米路南",
"Dealer_type": 2,
"DisSort": "4s店"
},
{
"Id": 12394,
"DealerSN": "D3489",
"DisName": "开封广腾汽车销售服务有限公司",
"CityID": 12224,
"Tel": "0371-28887321",
"Sales_tel": "0371-23668268",
"open_service": 0,
"Lng": "114.306289",
"Lat": "34.8553",
"Address": "开封市金明大道与连霍高速交叉口向北500米路西",
"Dealer_type": 1,
"DisSort": "4s店"
},
{
"Id": 11705,
"DealerSN": "D3456",
"DisName": "洛阳众腾汽车销售服务有限公司",
"CityID": 11705,
"Tel": "0379-60602020",
"Sales_tel": "0379-60602111",
"open_service": 0,
"Lng": "112.512797",
"Lat": "34.684969",
"Address": "洛阳市瀍河区九都东路与启明南路交叉口向南100米",
"Dealer_type": 1,
"DisSort": "4s店"
},
{
"Id": 12205,
"DealerSN": "D3455",
"DisName": "洛阳威佳佳盛汽车销售服务有限公司",
"CityID": 11705,
"Tel": "0379-60652299",
"Sales_tel": "0379-60652222",
"open_service": 0,
"Lng": "112.345752",
"Lat": "34.606532",
"Address": "洛阳市高新开发区河洛路与安康路交叉口向北500米威佳汽车博览中心3号",
"Dealer_type": 2,
"DisSort": "4s店"
},
{
"Id": 12246,
"DealerSN": "D3477",
"DisName": "偃师泽润汽车销售服务有限公司",
"CityID": 11705,
"Tel": "0379-65093366",
"Sales_tel": "0379-65098811",
"open_service": 0,
"Lng": "112.760571",
"Lat": "34.742936",
"Address": "偃师市城关镇杏园村高速引线东陇海铁路北（偃师龙腾汽车贸易有限公司院内）",
"Dealer_type": 2,
"DisSort": "4s店"
},
{
"Id": 12327,
"DealerSN": "D3483",
"DisName": "洛阳普旭汽车销售服务有限公司",
"CityID": 11705,
"Tel": "0379-65590022",
"Sales_tel": "0379-65590011",
"open_service": 0,
"Lng": "112.476536",
"Lat": "34.628132",
"Address": "河南省洛阳市洛龙区政和路1号",
"Dealer_type": 1,
"DisSort": "4s店"
},
{
"Id": 12393,
"DealerSN": "D3488",
"DisName": "河南诚派汽车销售服务有限公司",
"CityID": 11705,
"Tel": "0379-65163999",
"Sales_tel": "0379-65161999",
"open_service": 0,
"Lng": "112.391255",
"Lat": "34.570668",
"Address": "洛阳市洛龙区文仲大道众德慧汽车公园院内",
"Dealer_type": 1,
"DisSort": "4s店"
},
{
"Id": 11673,
"DealerSN": "D3421",
"DisName": "漯河润中汽车销售服务有限公司",
"CityID": 12193,
"Tel": "0395-3322995",
"Sales_tel": "0395-3321111",
"open_service": 0,
"Lng": "113.994931",
"Lat": "33.600953",
"Address": "河南省漯河市辽河路与107国道交汇处北300米",
"Dealer_type": 1,
"DisSort": "4s店"
},
{
"Id": 12193,
"DealerSN": "D3472",
"DisName": "漯河润达汽车销售服务有限公司",
"CityID": 12193,
"Tel": "0395-3335700",
"Sales_tel": "0395-3332700",
"open_service": 0,
"Lng": "114.000367",
"Lat": "33.553851",
"Address": "河南省漯河市源汇区107国道与漯舞路交叉口向西600米众汇汽车广场",
"Dealer_type": 2,
"DisSort": "4s店"
},
{
"Id": 11688,
"DealerSN": "D3438",
"DisName": "南阳市中澳汽车销售有限公司",
"CityID": 11688,
"Tel": "0377-62135678",
"Sales_tel": "0377-83886275",
"open_service": 0,
"Lng": "112.495488",
"Lat": "33.025019",
"Address": "南阳市北京大道北段路西（希望饲料斜对面）",
"Dealer_type": 1,
"DisSort": "4s店"
},
{
"Id": 11689,
"DealerSN": "D3439",
"DisName": "南阳威佳实业有限公司",
"CityID": 11688,
"Tel": "0377-63481111",
"Sales_tel": "0377-66077222",
"open_service": 0,
"Lng": "112.603738",
"Lat": "33.029357",
"Address": "南阳市信臣路（老312国道）市检察院斜对面",
"Dealer_type": 1,
"DisSort": "4s店"
},
{
"Id": 11710,
"DealerSN": "D3461",
"DisName": "南阳时代宏图汽车销售服务有限公司",
"CityID": 11688,
"Tel": "0377-60693999",
"Sales_tel": "0377-60875888",
"open_service": 0,
"Lng": "112.570502",
"Lat": "33.057471",
"Address": "仲景北路车管所南50 米",
"Dealer_type": 1,
"DisSort": "4s店"
},
{
"Id": 12197,
"DealerSN": "D3467",
"DisName": "邓州恒信华通汽车销售服务有限公司",
"CityID": 11688,
"Tel": "0377-60692333",
"Sales_tel": "0377-60692000",
"open_service": 0,
"Lng": "112.161244",
"Lat": "32.682302",
"Address": "邓州市迎宾大道与207国道交叉口附2号",
"Dealer_type": 2,
"DisSort": "4s店"
},
{
"Id": 12398,
"DealerSN": "D3490",
"DisName": "南阳中汇中汇汽车有限公司",
"CityID": 11688,
"Tel": "0377-60386088",
"Sales_tel": "0377-60363166",
"open_service": 0,
"Lng": "112.4827752743",
"Lat": "32.9728462667",
"Address": "师院西田园新城中汇现代",
"Dealer_type": 1,
"DisSort": "4s店"
},
{
"Id": 12104,
"DealerSN": "D3471",
"DisName": "平顶山市瑞亿汽车销售服务有限公司",
"CityID": 12104,
"Tel": " ",
"Sales_tel": "0375-2231666",
"open_service": 0,
"Lng": "113.352733",
"Lat": "33.746072",
"Address": "河南省平顶山市卫东区矿工路与东环路交叉口向西300米路南",
"Dealer_type": 1,
"DisSort": "4s店"
},
{
"Id": 12253,
"DealerSN": "D3473",
"DisName": "平顶山市润嘉汽车销售有限公司",
"CityID": 12104,
"Tel": "0375-6196777",
"Sales_tel": "0375-6195666",
"open_service": 0,
"Lng": "113.402369",
"Lat": "33.739336",
"Address": "卫东区建设路东段661号",
"Dealer_type": 2,
"DisSort": "4s店"
},
{
"Id": 12308,
"DealerSN": "D3478",
"DisName": "平顶山市瑞行汽车销售服务有限公司",
"CityID": 12104,
"Tel": "0375-5072766",
"Sales_tel": "0375-5071766",
"open_service": 0,
"Lng": "112.936172",
"Lat": "33.724555",
"Address": "鲁山县花园路南段滨河丽景楼下",
"Dealer_type": 1,
"DisSort": "4s店"
},
{
"Id": 12328,
"DealerSN": "D3450",
"DisName": "河南瑞格汽车销售服务有限公司",
"CityID": 12104,
"Tel": "0375-2669777",
"Sales_tel": "0375-2661777",
"open_service": 0,
"Lng": "113.258303",
"Lat": "33.772916",
"Address": "新华区平安大道与西环路口东100米路北",
"Dealer_type": 1,
"DisSort": "4s店"
},
{
"Id": 11677,
"DealerSN": "D3426",
"DisName": "濮阳市华瑞璞光汽车销售服务有限公司",
"CityID": 11704,
"Tel": "0393-2059888",
"Sales_tel": "0393-4499111",
"open_service": 0,
"Lng": "115.122785",
"Lat": "35.776309",
"Address": "中原路与106国道交叉口西200米路南",
"Dealer_type": 1,
"DisSort": "4s店"
},
{
"Id": 11704,
"DealerSN": "D3454",
"DisName": "濮阳市璞润机电设备有限公司",
"CityID": 11704,
"Tel": "0393-4498050",
"Sales_tel": "0393-4495000",
"open_service": 0,
"Lng": "115.080922",
"Lat": "35.783731",
"Address": "濮阳市中原路与濮水路交叉口东南角",
"Dealer_type": 1,
"DisSort": "4s店"
},
{
"Id": 12429,
"DealerSN": "D3492",
"DisName": "三门峡瑞源汽车销售服务有限公司",
"CityID": 12429,
"Tel": "0398-2890779",
"Sales_tel": "0398-2987988",
"open_service": 0,
"Lng": "111.17527777777778",
"Lat": "34.80138888888889",
"Address": "河南省三门峡市机动车交易市场西区1号",
"Dealer_type": 1,
"DisSort": "4s店"
},
{
"Id": 11681,
"DealerSN": "D3431",
"DisName": "商丘宝志汽车销售服务有限公司",
"CityID": 11681,
"Tel": "0370-2770000",
"Sales_tel": "0370-2020088",
"open_service": 0,
"Lng": "115.630882",
"Lat": "34.436549",
"Address": "商丘市平原路新师院南侧",
"Dealer_type": 1,
"DisSort": "4s店"
},
{
"Id": 11694,
"DealerSN": "D3444",
"DisName": "商丘天泽汽车销售服务有限公司",
"CityID": 11681,
"Tel": "0370-3908999",
"Sales_tel": "0370-3909888",
"open_service": 0,
"Lng": "115.600244",
"Lat": "34.449968",
"Address": "商丘市金桥路与锦绣路交叉口西100米路北",
"Dealer_type": 1,
"DisSort": "4s店"
},
{
"Id": 11697,
"DealerSN": "D3447",
"DisName": "永城金祥汽车销售服务有限公司",
"CityID": 11681,
"Tel": "0370-5183333",
"Sales_tel": "0370-5431111",
"open_service": 0,
"Lng": "116.431321",
"Lat": "33.897182",
"Address": "永城市芒山路南段汽车城北京现代金祥店",
"Dealer_type": 1,
"DisSort": "4s店"
},
{
"Id": 12247,
"DealerSN": "D3476",
"DisName": "商丘普祥汽车销售有限公司",
"CityID": 11681,
"Tel": "0370-2597666",
"Sales_tel": "0370-2599666",
"open_service": 0,
"Lng": "115.69083",
"Lat": "34.394167",
"Address": "商丘市城乡一体化示范区星林南路200米路东",
"Dealer_type": 2,
"DisSort": "4s店"
},
{
"Id": 11678,
"DealerSN": "D3427",
"DisName": "新乡市兆阳汽车销售服务有限公司",
"CityID": 11714,
"Tel": "0373-2198999",
"Sales_tel": "0373-2198888",
"open_service": 0,
"Lng": "113.870756",
"Lat": "35.295052",
"Address": "新乡市卫滨区解放大道南146号",
"Dealer_type": 1,
"DisSort": "4s店"
},
{
"Id": 11693,
"DealerSN": "D3443",
"DisName": "新乡市锦程汽车销售服务有限公司",
"CityID": 11714,
"Tel": "0373-5813333",
"Sales_tel": "0373-5296666",
"open_service": 0,
"Lng": "113.901801",
"Lat": "35.264518",
"Address": "新乡市南环路与振中路十字路口东南角",
"Dealer_type": 1,
"DisSort": "4s店"
},
{
"Id": 11698,
"DealerSN": "D3448",
"DisName": "长垣大广汽车销售服务有限公司",
"CityID": 11714,
"Tel": "0373-8623333",
"Sales_tel": "0373-8914888",
"open_service": 0,
"Lng": "114.652665",
"Lat": "35.186107",
"Address": "河南省新乡市长垣县大地亚飞汽车城院内",
"Dealer_type": 1,
"DisSort": "4s店"
},
{
"Id": 11706,
"DealerSN": "D3457",
"DisName": "新乡东安远达汽车销售服务有限公司",
"CityID": 11714,
"Tel": "0373-7771333",
"Sales_tel": "0373-7933333",
"open_service": 0,
"Lng": "114.008839",
"Lat": "35.30202",
"Address": "新乡市新东产业集聚区东安汽车园内",
"Dealer_type": 1,
"DisSort": "4s店"
},
{
"Id": 11714,
"DealerSN": "D3466",
"DisName": "辉县市启航汽车服务有限公司",
"CityID": 11714,
"Tel": "0373-6259977",
"Sales_tel": "0373-6667666",
"open_service": 0,
"Lng": "113.828226",
"Lat": "35.448263",
"Address": "辉县市三里屯转盘向东600米路南",
"Dealer_type": 1,
"DisSort": "4s店"
},
{
"Id": 11679,
"DealerSN": "D3429",
"DisName": "信阳全程汽车销售服务有限公司",
"CityID": 11679,
"Tel": "0376-3809577",
"Sales_tel": "0376-3809777",
"open_service": 0,
"Lng": "114.154211",
"Lat": "32.132725",
"Address": "河南省信阳市312国道（银钱村）北京现代4S店",
"Dealer_type": 1,
"DisSort": "4s店"
},
{
"Id": 11703,
"DealerSN": "D3453",
"DisName": "信阳和润汽车销售服务有限公司",
"CityID": 11679,
"Tel": "0376-6798999",
"Sales_tel": "0376-8111111",
"open_service": 0,
"Lng": "114.207714",
"Lat": "32.132866",
"Address": "信阳市工业城312国道与京港澳高速交叉口向西500米路南",
"Dealer_type": 1,
"DisSort": "4s店"
},
{
"Id": 12345,
"DealerSN": "D3481",
"DisName": "固始联盛汽车销售服务有限公司",
"CityID": 11679,
"Tel": "0376-4061111",
"Sales_tel": "0376-4081111",
"open_service": 0,
"Lng": "115.668494",
"Lat": "32.133218",
"Address": "固始县城关怡和大道南段",
"Dealer_type": 1,
"DisSort": "4s店"
},
{
"Id": 11674,
"DealerSN": "D3422",
"DisName": "许昌亿阳汽车销售服务有限公司",
"CityID": 12232,
"Tel": "0374-8371111",
"Sales_tel": "0374-8370000",
"open_service": 0,
"Lng": "113.880279",
"Lat": "34.042036",
"Address": "许昌市东城区莲城大道与魏武路交叉口向西50米路南",
"Dealer_type": 1,
"DisSort": "4s店"
},
{
"Id": 11691,
"DealerSN": "D3441",
"DisName": "许昌双亿汽车销售服务有限公司",
"CityID": 12232,
"Tel": "0374-2538888",
"Sales_tel": "0374-2537777",
"open_service": 0,
"Lng": "113.434632",
"Lat": "34.160785\n",
"Address": "河南省禹州市腾飞路恒力汽车物流园",
"Dealer_type": 1,
"DisSort": "4s店"
},
{
"Id": 11709,
"DealerSN": "D3460",
"DisName": "许昌兆通汽车销售服务有限公司",
"CityID": 12232,
"Tel": "0374-7013999",
"Sales_tel": "0374-7010999",
"open_service": 0,
"Lng": "113.795791",
"Lat": "34.222752",
"Address": "长葛市钟繇大道中段（东转盘向南900米路东）",
"Dealer_type": 1,
"DisSort": "4s店"
},
{
"Id": 12232,
"DealerSN": "D3463",
"DisName": "许昌市恒悦汽车销售服务有限公司",
"CityID": 12232,
"Tel": "0374-2593999",
"Sales_tel": "0374-2593777",
"open_service": 0,
"Lng": "113.860469",
"Lat": "33.9899",
"Address": "许昌市南环路东段",
"Dealer_type": 2,
"DisSort": "4s店"
},
{
"Id": 12340,
"DealerSN": "D3485",
"DisName": "许昌正通福达汽车销售服务有限公司",
"CityID": 12232,
"Tel": "0374-2337111",
"Sales_tel": "0374-2678111",
"open_service": 0,
"Lng": "113.807278",
"Lat": "34.009325",
"Address": "河南省许昌市魏都区许由路与延安路交叉口向东100米路南",
"Dealer_type": 1,
"DisSort": "4s店"
},
{
"Id": 12368,
"DealerSN": "D3482",
"DisName": "许昌福恒汽车销售服务有限公司",
"CityID": 12232,
"Tel": "0374-2038666",
"Sales_tel": "0374-7087666",
"open_service": 0,
"Lng": "114.198718",
"Lat": "34.082351",
"Address": "鄢陵县产业集聚区未来大道西段麦肯特广场西300米路南 ",
"Dealer_type": 1,
"DisSort": "4s店"
},
{
"Id": 11669,
"DealerSN": "D3416",
"DisName": "河南裕华金阳光汽车销售服务有限公司",
"CityID": 11712,
"Tel": "0371-65590077",
"Sales_tel": "0371-65590011",
"open_service": 0,
"Lng": "113.684412",
"Lat": "34.869012",
"Address": "郑州市花园路与开元路交叉口河南汽车贸易中心",
"Dealer_type": 1,
"DisSort": "4s店"
},
{
"Id": 11670,
"DealerSN": "D3417",
"DisName": "河南万佳捷泰汽车贸易有限公司",
"CityID": 11712,
"Tel": "0371-68879636",
"Sales_tel": "0371-68879660",
"open_service": 0,
"Lng": "113.696768",
"Lat": "34.725031",
"Address": "郑州市城东南路30号-1号",
"Dealer_type": 1,
"DisSort": "4s店"
},
{
"Id": 11671,
"DealerSN": "D3418",
"DisName": "河南长江汽车销售服务有限公司",
"CityID": 11712,
"Tel": "400-6599-111",
"Sales_tel": "0371-66539222",
"open_service": 0,
"Lng": "113.715984",
"Lat": "34.753175",
"Address": "郑州市郑汴路116号",
"Dealer_type": 1,
"DisSort": "4s店"
},
{
"Id": 11683,
"DealerSN": "D3433",
"DisName": "郑州北环汽车贸易有限公司",
"CityID": 11712,
"Tel": "0371-88880608",
"Sales_tel": "4006599599\/0371-88880508",
"open_service": 1,
"Lng": "113.661477",
"Lat": "34.817322",
"Address": "郑州市北环路中段路北",
"Dealer_type": 1,
"DisSort": "4s店"
},
{
"Id": 11686,
"DealerSN": "D3436",
"DisName": "河南天行健汽车服务有限公司",
"CityID": 11712,
"Tel": "0371-65663333",
"Sales_tel": "0371-67962222\/0371-55612888",
"open_service": 0,
"Lng": "113.498629",
"Lat": "34.758881",
"Address": "郑州市中原区郑上路与兰州北路交叉口向南500米大中原汽车城北京现代天行健店",
"Dealer_type": 1,
"DisSort": "4s店"
},
{
"Id": 11699,
"DealerSN": "D3449",
"DisName": "河南恒业汽车销售服务有限公司",
"CityID": 11712,
"Tel": "0371-86608811",
"Sales_tel": "0371-86608800",
"open_service": 0,
"Lng": "113.694964",
"Lat": "34.841012",
"Address": "河南省郑州市中州大道与三全路交叉口北500米路西桑园汽车城",
"Dealer_type": 1,
"DisSort": "4s店"
},
{
"Id": 11707,
"DealerSN": "D3458",
"DisName": "郑州汇翔汽车销售服务有限公司",
"CityID": 11712,
"Tel": "0371-86561888",
"Sales_tel": "0371-86256666",
"open_service": 0,
"Lng": "113.635252",
"Lat": "34.711998",
"Address": "郑州市嵩山路与南三环交汇处东北角百姓广场A馆",
"Dealer_type": 1,
"DisSort": "4s店"
},
{
"Id": 11708,
"DealerSN": "D3459",
"DisName": "新郑市天河汽车服务有限公司",
"CityID": 11712,
"Tel": "0371-62430888",
"Sales_tel": "0371-62430666",
"open_service": 0,
"Lng": "113.726153",
"Lat": "34.597945",
"Address": "新郑市龙湖镇泰山路东段",
"Dealer_type": 1,
"DisSort": "4s店"
},
{
"Id": 11712,
"DealerSN": "D3464",
"DisName": "河南普源汽车销售服务有限公司",
"CityID": 11712,
"Tel": "0371-66805777",
"Sales_tel": "0371-66269666",
"open_service": 0,
"Lng": "113.766096",
"Lat": "34.739872",
"Address": "东风南路与经北六路交叉口向西100米路北",
"Dealer_type": 1,
"DisSort": "4s店"
},
{
"Id": 11713,
"DealerSN": "D3465",
"DisName": "巩义市天行健汽车服务有限公司",
"CityID": 11712,
"Tel": "0371-64423266",
"Sales_tel": "0371-64427555",
"open_service": 0,
"Lng": "113.039854",
"Lat": "34.783784",
"Address": "巩义市河洛路中段（金明汽车广场院内）",
"Dealer_type": 1,
"DisSort": "4s店"
},
{
"Id": 12279,
"DealerSN": "D3479",
"DisName": "新密天行健汽车服务有限公司",
"CityID": 11712,
"Tel": "0371-85809333",
"Sales_tel": "0371-85809222",
"open_service": 0,
"Lng": "113.38419",
"Lat": "34.530799",
"Address": "开阳路与新华路交叉口北京现代天行健店",
"Dealer_type": 1,
"DisSort": "4s店"
},
{
"Id": 12404,
"DealerSN": "D3491",
"DisName": "郑州和润汇通汽车销售服务有限公司",
"CityID": 11712,
"Tel": "0371-55357555",
"Sales_tel": "0371-55357131",
"open_service": 0,
"Lng": "113.634653",
"Lat": "34.709404",
"Address": "郑州市嵩山南路269-7号",
"Dealer_type": 1,
"DisSort": "4s店"
},
{
"Id": 11692,
"DealerSN": "D3442",
"DisName": "周口长达汽车销售服务有限公司",
"CityID": 11692,
"Tel": "0394-8263222",
"Sales_tel": "0394-8101222",
"open_service": 0,
"Lng": "114.682178",
"Lat": "33.656594",
"Address": "周口市北环路东段宏源精品汽车城",
"Dealer_type": 1,
"DisSort": "4s店"
},
{
"Id": 12103,
"DealerSN": "D3468",
"DisName": "周口广胜汽车销售服务有限公司",
"CityID": 11692,
"Tel": "0394-8175555",
"Sales_tel": "0394-8356666",
"open_service": 0,
"Lng": "114.638488",
"Lat": "33.591939",
"Address": "周口市川汇区交通路东段(周项路口向东2公里）路北",
"Dealer_type": 1,
"DisSort": "4s店"
},
{
"Id": 12355,
"DealerSN": "D3487",
"DisName": "周口嘉禾汽车销售服务有限公司",
"CityID": 11692,
"Tel": "0394-8287999",
"Sales_tel": "0394-8512888",
"open_service": 0,
"Lng": "114.640959",
"Lat": "33.59932",
"Address": "周口市川汇区太昊路与迎宾大道交叉口西北角80米路北",
"Dealer_type": 1,
"DisSort": "4s店"
},
{
"Id": 11687,
"DealerSN": "D3437",
"DisName": "驻马店市腾麟汽车贸易有限公司",
"CityID": 11687,
"Tel": "0396-2128777",
"Sales_tel": "0396-2227777",
"open_service": 0,
"Lng": "114.020174",
"Lat": "33.041038",
"Address": "驻马店市文明路与纬四路交叉口路东",
"Dealer_type": 1,
"DisSort": "4s店"
},
{
"Id": 11701,
"DealerSN": "D3451",
"DisName": "驻马店市腾威汽车销售服务有限公司",
"CityID": 11687,
"Tel": "0396-8117666",
"Sales_tel": "0396-8117777",
"open_service": 0,
"Lng": "114.065352",
"Lat": "33.021",
"Address": "驻马店市开源大道与驿城大道交叉口",
"Dealer_type": 1,
"DisSort": "4s店"
},
{
"Id": 12341,
"DealerSN": "D3486",
"DisName": "驻马店六和汽车销售服务有限公司",
"CityID": 11687,
"Tel": "0396-3307999",
"Sales_tel": "0396-3302777",
"open_service": 0,
"Lng": "114.006377",
"Lat": "32.979652",
"Address": "驻马店市驿城区解放大道西侧王楼",
"Dealer_type": 1,
"DisSort": "4s店"
},
{
"Id": 11913,
"DealerSN": "D4525",
"DisName": "大庆业勤鸿润汽车销售服务有限公司",
"CityID": 12111,
"Tel": "0459-5050300",
"Sales_tel": "0459-5050588",
"open_service": 0,
"Lng": "124.86664",
"Lat": "46.678415",
"Address": "大庆市让胡路区经济开发区汽车工业园",
"Dealer_type": 1,
"DisSort": "4s店"
},
{
"Id": 12111,
"DealerSN": "D4518",
"DisName": "大庆润达新亚汽车销售服务有限公司",
"CityID": 12111,
"Tel": " ",
"Sales_tel": "0459-8151666",
"open_service": 0,
"Lng": "125.153543",
"Lat": "46.569121",
"Address": "大庆市高新区创业东街2号",
"Dealer_type": 2,
"DisSort": "4s店"
},
{
"Id": 12114,
"DealerSN": "D4536",
"DisName": "大兴安岭华东汽车销售服务有限公司",
"CityID": 12114,
"Tel": " 0457-8976555",
"Sales_tel": "0457-8975555",
"open_service": 0,
"Lng": "124.152731",
"Lat": "50.413074",
"Address": "黑龙江省大兴安岭地区加格达奇区景观大道东延",
"Dealer_type": 1,
"DisSort": "4s店"
},
{
"Id": 11916,
"DealerSN": "D4530",
"DisName": "哈尔滨汇华汽车销售服务有限公司",
"CityID": 11916,
"Tel": "0451-51687070",
"Sales_tel": "51688080",
"open_service": 0,
"Lng": "126.547211",
"Lat": "45.706499",
"Address": "哈尔滨市道里区机场路161号",
"Dealer_type": 1,
"DisSort": "4s店"
},
{
"Id": 12109,
"DealerSN": "D4516",
"DisName": "哈尔滨百丰汽车销售服务有限公司",
"CityID": 11916,
"Tel": " ",
"Sales_tel": "0451-84375888",
"open_service": 0,
"Lng": "126.588062",
"Lat": "45.73311",
"Address": "哈尔滨市道里区城乡路241号",
"Dealer_type": 2,
"DisSort": "4s店"
},
{
"Id": 12110,
"DealerSN": "D4517",
"DisName": "黑龙江亿发鸿运汽车销售服务有限公司",
"CityID": 11916,
"Tel": " ",
"Sales_tel": "0451-82427777",
"open_service": 0,
"Lng": "126.694314",
"Lat": "45.773176",
"Address": "黑龙江省哈尔滨市道外区先锋路469号",
"Dealer_type": 2,
"DisSort": "4s店"
},
{
"Id": 12371,
"DealerSN": "D4538",
"DisName": "哈尔滨金亿达汽车销售服务有限公司",
"CityID": 11916,
"Tel": "0451-58582233",
"Sales_tel": "0451-87812222",
"open_service": 0,
"Lng": "126.610507",
"Lat": "45.617902",
"Address": "哈尔滨市经开区南岗集中区松花路33号",
"Dealer_type": 1,
"DisSort": "4s店"
},
{
"Id": 12383,
"DealerSN": "D4540",
"DisName": "佳木斯得瑞行汽车销售服务有限公司",
"CityID": 12383,
"Tel": "0454-6038878",
"Sales_tel": "0454-6038868",
"open_service": 0,
"Lng": "130.235461",
"Lat": "46.803323",
"Address": "佳木斯市郊区友谊路1503号",
"Dealer_type": 1,
"DisSort": "4s店"
},
{
"Id": 12113,
"DealerSN": "D4533",
"DisName": "牡丹江市瑞宝宇通汽车销售服务有限公司",
"CityID": 12113,
"Tel": " ",
"Sales_tel": "0453-6247000",
"open_service": 0,
"Lng": "129.601797",
"Lat": "44.562862",
"Address": "西安区海浪路185号",
"Dealer_type": 2,
"DisSort": "4s店"
},
{
"Id": 11909,
"DealerSN": "D4521",
"DisName": "齐齐哈尔瑞宝宏通汽车销售服务有限公司",
"CityID": 11909,
"Tel": "0452-6150707",
"Sales_tel": "0452-6150700",
"open_service": 0,
"Lng": "123.976273",
"Lat": "47.307035",
"Address": "黑龙江省齐齐哈尔市龙沙区鹤城路北侧170号",
"Dealer_type": 1,
"DisSort": "4s店"
},
{
"Id": 11914,
"DealerSN": "D4526",
"DisName": "齐齐哈尔骏发汽车销售服务有限公司",
"CityID": 11909,
"Tel": "0452-6138088",
"Sales_tel": "0452-6106611",
"open_service": 0,
"Lng": "123.938116",
"Lat": "47.309913",
"Address": "齐齐哈尔市龙沙区永安南大街135号",
"Dealer_type": 1,
"DisSort": "4s店"
},
{
"Id": 11918,
"DealerSN": "D4535",
"DisName": "绥化圣亚宏通汽车销售服务有限公司",
"CityID": 11918,
"Tel": "0455-8271119",
"Sales_tel": "0455-8270999",
"open_service": 2,
"Lng": "126.992439",
"Lat": "46.592864",
"Address": "绥化市北林区绥化市经济技术开发区兴绥路88号",
"Dealer_type": 1,
"DisSort": "4s店"
},
{
"Id": 11723,
"DealerSN": "D3524",
"DisName": "恩施恒星汽车销售服务有限公司",
"CityID": 11723,
"Tel": "0718-8415533",
"Sales_tel": "0718-8413111",
"open_service": 0,
"Lng": "109.48723",
"Lat": "30.331315",
"Address": "湖北省恩施市红庙开发区下官田",
"Dealer_type": 1,
"DisSort": "4s店"
},
{
"Id": 12262,
"DealerSN": "D3543",
"DisName": "恩施华悦汽车销售服务有限公司",
"CityID": 11723,
"Tel": "0718-8966098",
"Sales_tel": "0718-8966018",
"open_service": 0,
"Lng": "109.460825",
"Lat": "30.288913",
"Address": "松树坪国际汽车城",
"Dealer_type": 2,
"DisSort": "4s店"
},
{
"Id": 11729,
"DealerSN": "D3530",
"DisName": "黄冈市新兴广源汽车销售有限公司",
"CityID": 11729,
"Tel": "0713-8817333",
"Sales_tel": "0713-8817555",
"open_service": 0,
"Lng": "114.90527",
"Lat": "30.473826",
"Address": "湖北省黄冈市黄州区赤壁二路(中国石化侧面)",
"Dealer_type": 1,
"DisSort": "4s店"
},
{
"Id": 12338,
"DealerSN": "D3545",
"DisName": "湖北显德汽车销售服务有限公司",
"CityID": 11729,
"Tel": "0713-2721988",
"Sales_tel": "0713-2727555",
"open_service": 0,
"Lng": "114.929982",
"Lat": "31.149536",
"Address": "湖北省麻城市中馆驿镇神龙大道1号大广汽车城",
"Dealer_type": 1,
"DisSort": "4s店"
},
{
"Id": 11722,
"DealerSN": "D3523",
"DisName": "黄石市新兴汽车销售有限责任公司",
"CityID": 11722,
"Tel": "0714-6513833",
"Sales_tel": "0714-6537666",
"open_service": 0,
"Lng": "114.988203",
"Lat": "30.216334",
"Address": "下陆区发展大道135号",
"Dealer_type": 1,
"DisSort": "4s店"
},
{
"Id": 11738,
"DealerSN": "D3539",
"DisName": "黄石市新兴振宇汽车销售有限公司",
"CityID": 11722,
"Tel": "0714-6377188",
"Sales_tel": "0714-6377177",
"open_service": 0,
"Lng": "115.027685",
"Lat": "30.142186",
"Address": "金山街道办事处明港社区大棋大道358号",
"Dealer_type": 1,
"DisSort": "4s店"
},
{
"Id": 11724,
"DealerSN": "D3525",
"DisName": "荆门恒信华通汽车销售服务有限公司",
"CityID": 11724,
"Tel": "0724-6809555",
"Sales_tel": "0724-6809666",
"open_service": 0,
"Lng": "112.208997",
"Lat": "31.01655",
"Address": "湖北省荆门市东宝区白云大道108号（水上公园正对面）",
"Dealer_type": 1,
"DisSort": "4s店"
},
{
"Id": 11720,
"DealerSN": "D3521",
"DisName": "荆州市恒信德龙汽车销售服务有限公司",
"CityID": 11720,
"Tel": "0716-8490919",
"Sales_tel": "0716-8490909",
"open_service": 0,
"Lng": "112.225925",
"Lat": "30.361702",
"Address": "荆州市荆州区荆沙大道马河渔场",
"Dealer_type": 1,
"DisSort": "4s店"
},
{
"Id": 12334,
"DealerSN": "D3548",
"DisName": "荆州欣鼎汽车销售服务有限公司",
"CityID": 11720,
"Tel": "0716-4171777",
"Sales_tel": "0716-4171888",
"open_service": 0,
"Lng": "112.340922",
"Lat": "30.23947",
"Address": "荆州开发区荆监一级公路以北",
"Dealer_type": 1,
"DisSort": "4s店"
},
{
"Id": 12237,
"DealerSN": "D3540",
"DisName": "潜江市利通双全汽车销售有限公司",
"CityID": 12237,
"Tel": "0728-6248588， 13307221976",
"Sales_tel": "0728-6237066，0728-6517666",
"open_service": 0,
"Lng": "112.871592",
"Lat": "30.421041",
"Address": "园林办事处红梅西路99号",
"Dealer_type": 2,
"DisSort": "4s店"
},
{
"Id": 12399,
"DealerSN": "D3552",
"DisName": "十堰汇千汽车销售服务有限公司",
"CityID": 12399,
"Tel": "0719-8761580",
"Sales_tel": "0719-8798888",
"open_service": 0,
"Lng": "110.8546044291",
"Lat": "32.6145161412",
"Address": "十堰市茅箭区东城开发区东风大道33号",
"Dealer_type": 1,
"DisSort": "4s店"
},
{
"Id": 11725,
"DealerSN": "D3526",
"DisName": "随州华强汽车销售服务有限公司",
"CityID": 11725,
"Tel": "0722-3587568",
"Sales_tel": "0722-3587565",
"open_service": 0,
"Lng": "113.427819",
"Lat": "31.696952",
"Address": "湖北省随州市经济开发区十里铺村",
"Dealer_type": 1,
"DisSort": "4s店"
},
{
"Id": 12245,
"DealerSN": "D3542",
"DisName": "湖北天门天现汽车销售服务有限公司",
"CityID": 12245,
"Tel": "0728-5813366",
"Sales_tel": "0728-5812288",
"open_service": 0,
"Lng": "113.190172",
"Lat": "30.611362",
"Address": "天门市三乡路陆羽汽车城二期B区（往小板方向）",
"Dealer_type": 2,
"DisSort": "4s店"
},
{
"Id": 11715,
"DealerSN": "D3516",
"DisName": "武汉华星鸿泰汽车销售服务有限公司",
"CityID": 11737,
"Tel": "027-84620815",
"Sales_tel": "027-84867777",
"open_service": 0,
"Lng": "114.115762",
"Lat": "30.337556",
"Address": "武汉市汉阳区龙阳大道隆祥街22号",
"Dealer_type": 1,
"DisSort": "4s店"
},
{
"Id": 11716,
"DealerSN": "D3517",
"DisName": "湖北欣瑞汽车销售服务有限公司",
"CityID": 11737,
"Tel": "027-59516806",
"Sales_tel": "027-59516808",
"open_service": 0,
"Lng": "114.27472",
"Lat": "30.632652",
"Address": "武汉市江汉区兴业路2号",
"Dealer_type": 1,
"DisSort": "4s店"
},
{
"Id": 11719,
"DealerSN": "D3520",
"DisName": "湖北港田汽车销售服务有限公司",
"CityID": 11737,
"Tel": "027-86680808",
"Sales_tel": "027-86833333",
"open_service": 0,
"Lng": "114.398065",
"Lat": "30.60357",
"Address": "武汉市洪山区仁和路248号东湖和平汽车园（欢乐大道-欢乐谷正对面）",
"Dealer_type": 1,
"DisSort": "4s店"
},
{
"Id": 11728,
"DealerSN": "D3529",
"DisName": "武汉华星天佑汽车销售服务有限公司",
"CityID": 11737,
"Tel": "027-87590522",
"Sales_tel": "027-87768666",
"open_service": 0,
"Lng": "114.427659",
"Lat": "30.488742",
"Address": "武汉市洪山区光谷大道463号 武汉职业技术学院东二门",
"Dealer_type": 1,
"DisSort": "4s店"
},
{
"Id": 11735,
"DealerSN": "D3536",
"DisName": "武汉泽泰融通汽车销售服务有限公司",
"CityID": 11737,
"Tel": "027-59002929",
"Sales_tel": "027-59548888",
"open_service": 0,
"Lng": "114.420085",
"Lat": "30.437628",
"Address": "湖北省武汉市东新开发区光谷大道九凤街一号",
"Dealer_type": 1,
"DisSort": "4s店"
},
{
"Id": 11737,
"DealerSN": "D3538",
"DisName": "武汉恒信华通汽车销售服务有限公司",
"CityID": 11737,
"Tel": "027-87600680",
"Sales_tel": "027-87666600",
"open_service": 0,
"Lng": "114.344949",
"Lat": "30.479281",
"Address": "洪山区狮子山街华中农业大学西门1-1-3号",
"Dealer_type": 1,
"DisSort": "4s店"
},
{
"Id": 12319,
"DealerSN": "D3547",
"DisName": "武汉海福达汽车销售服务有限公司",
"CityID": 11737,
"Tel": "027-81813999",
"Sales_tel": "027-81815888",
"open_service": 0,
"Lng": "114.380958",
"Lat": "30.381371",
"Address": "武汉市江夏区庙山经济开发区邬树村幸福工业园特1号",
"Dealer_type": 1,
"DisSort": "4s店"
},
{
"Id": 11736,
"DealerSN": "D3537",
"DisName": "武汉仙旺汽车销售有限公司",
"CityID": 11736,
"Tel": "0728-3280678",
"Sales_tel": "0728-3275222",
"open_service": 0,
"Lng": "113.429022",
"Lat": "30.386893",
"Address": "湖北省仙桃市丝宝路北2号",
"Dealer_type": 1,
"DisSort": "4s店"
},
{
"Id": 11726,
"DealerSN": "D3527",
"DisName": "咸宁恒信路通汽车销售服务有限公司",
"CityID": 11726,
"Tel": "0715-8388588",
"Sales_tel": "0715-8388222",
"open_service": 0,
"Lng": "114.3209",
"Lat": "29.8922",
"Address": "湖北省咸宁市咸安区桂乡大道特9号",
"Dealer_type": 1,
"DisSort": "4s店"
},
{
"Id": 11733,
"DealerSN": "D3534",
"DisName": "襄阳市永奥汽车有限公司",
"CityID": 12318,
"Tel": "0710-2719990",
"Sales_tel": "0710-2719999\/0710-2719988",
"open_service": 0,
"Lng": "112.257085",
"Lat": "32.123494",
"Address": "湖北省襄阳市襄州区深圳工业园汽车城",
"Dealer_type": 1,
"DisSort": "4s店"
},
{
"Id": 12318,
"DealerSN": "D3549",
"DisName": "襄阳市英驰华星汽车服务有限公司",
"CityID": 12318,
"Tel": "0710-3338338",
"Sales_tel": "0710-3338335\/3338336",
"open_service": 0,
"Lng": "112.174797",
"Lat": "32.093257",
"Address": "樊城区春园东路51号",
"Dealer_type": 1,
"DisSort": "4s店"
},
{
"Id": 12332,
"DealerSN": "D3544",
"DisName": "襄阳市坤奥汽车有限公司",
"CityID": 12318,
"Tel": "0710-3351788",
"Sales_tel": "0710-2553333",
"open_service": 0,
"Lng": "112.075605",
"Lat": "32.095363",
"Address": "樊城区襄阳西高速路口向前600米",
"Dealer_type": 1,
"DisSort": "4s店"
},
{
"Id": 11727,
"DealerSN": "D3528",
"DisName": "孝感贤良汽车销售服务有限公司",
"CityID": 11727,
"Tel": "0712-2511966",
"Sales_tel": "0712-2512666",
"open_service": 0,
"Lng": "113.991141",
"Lat": "30.863477",
"Address": "湖北省孝感市孝武大道178号",
"Dealer_type": 1,
"DisSort": "4s店"
},
{
"Id": 12270,
"DealerSN": "D3546",
"DisName": "湖北沃特威汽车销售服务有限公司",
"CityID": 11727,
"Tel": "0712-8389999",
"Sales_tel": "0712-8388129",
"open_service": 0,
"Lng": "113.839197",
"Lat": "30.672078",
"Address": "霍城大道17号",
"Dealer_type": 2,
"DisSort": "4s店"
},
{
"Id": 11718,
"DealerSN": "D3519",
"DisName": "宜昌腾龙汽车销售服务有限公司",
"CityID": 12370,
"Tel": "0717-6906333",
"Sales_tel": "0717-6906999",
"open_service": 0,
"Lng": "111.332888",
"Lat": "30.720675",
"Address": "湖北省宜昌市东山开发区发展大道39号(质量技术监督局前行200米即到)",
"Dealer_type": 1,
"DisSort": "4s店"
},
{
"Id": 11732,
"DealerSN": "D3533",
"DisName": "宜昌恒信华通汽车销售服务有限公司",
"CityID": 12370,
"Tel": "0717-7890222",
"Sales_tel": "0717-7716555",
"open_service": 0,
"Lng": "111.351481",
"Lat": "30.780302",
"Address": "湖北省宜昌市夷陵区小溪塔发展大道（博大家私旁）",
"Dealer_type": 1,
"DisSort": "4s店"
},
{
"Id": 12370,
"DealerSN": "D3550",
"DisName": "宜昌恒信汽车销售服务有限公司",
"CityID": 12370,
"Tel": "0717-6861222",
"Sales_tel": "0717-6860222",
"open_service": 0,
"Lng": "111.384689",
"Lat": "30.670107",
"Address": "伍家岗区东站路189号",
"Dealer_type": 1,
"DisSort": "4s店"
},
{
"Id": 11884,
"DealerSN": "D4317",
"DisName": "湖南瑞特汽车销售服务有限公司",
"CityID": 12326,
"Tel": "0731－85647007",
"Sales_tel": "0731-85647008",
"open_service": 0,
"Lng": "113.043773",
"Lat": "28.128665",
"Address": "湖南省长沙市万家丽中路三段138号",
"Dealer_type": 2,
"DisSort": "4s店"
},
{
"Id": 11893,
"DealerSN": "D4328",
"DisName": "湖南世代汽车销售服务有限公司",
"CityID": 12326,
"Tel": "0731-88158999",
"Sales_tel": "0731-88155555",
"open_service": 0,
"Lng": "113.045352",
"Lat": "28.175483",
"Address": "湖南长沙市雨花区长沙大道546号（机场高速入口）",
"Dealer_type": 1,
"DisSort": "4s店"
},
{
"Id": 11897,
"DealerSN": "D4332",
"DisName": "湖南中拓瑞达汽车销售服务有限公司",
"CityID": 12326,
"Tel": "0731-89941111",
"Sales_tel": "0731-89831111",
"open_service": 0,
"Lng": "112.863213",
"Lat": "28.216226",
"Address": "长沙高新开发区嘉运路86号",
"Dealer_type": 1,
"DisSort": "4s店"
},
{
"Id": 11898,
"DealerSN": "D4334",
"DisName": "湖南永通华盛汽车销售服务有限公司",
"CityID": 12326,
"Tel": "0731-89780777",
"Sales_tel": "0731-89780888",
"open_service": 0,
"Lng": "112.991094",
"Lat": "28.098158",
"Address": "长沙市芙蓉南路与黑梨路口交汇处往西500米",
"Dealer_type": 1,
"DisSort": "4s店"
},
{
"Id": 11900,
"DealerSN": "D4336",
"DisName": "湖南中拓瑞晟汽车销售服务有限公司",
"CityID": 12326,
"Tel": "0731-83209595",
"Sales_tel": "0731-83781818",
"open_service": 1,
"Lng": "113.603551",
"Lat": "28.159052",
"Address": "浏阳市集里办事处平水村",
"Dealer_type": 1,
"DisSort": "4s店"
},
{
"Id": 11904,
"DealerSN": "D4342",
"DisName": "湖南省珈同汽车销售服务有限公司",
"CityID": 12326,
"Tel": "0731-88751853",
"Sales_tel": "0731-88751653",
"open_service": 0,
"Lng": "112.54064",
"Lat": "28.242442",
"Address": "湖南省宁乡县白马桥乡白马村大塘组",
"Dealer_type": 1,
"DisSort": "4s店"
},
{
"Id": 12326,
"DealerSN": "D4351",
"DisName": "湖南能翔瑞弘汽车销售服务有限公司",
"CityID": 12326,
"Tel": "0731-84117392",
"Sales_tel": "0731-84117392",
"open_service": 0,
"Lng": "113.044467",
"Lat": "28.203978",
"Address": "长沙市芙蓉区远大一路886号（远大路与古曲路交汇处）",
"Dealer_type": 1,
"DisSort": "4s店"
},
{
"Id": 12425,
"DealerSN": "D4352",
"DisName": "湖南兰天长望汽车销售有限公司",
"CityID": 12326,
"Tel": "0731-88511009",
"Sales_tel": "0731-88511001",
"open_service": 0,
"Lng": "112.78083333333333",
"Lat": "28.245555555555555",
"Address": "长沙高新开发区廖家坪街道廖家坪村",
"Dealer_type": 1,
"DisSort": "4s店"
},
{
"Id": 11886,
"DealerSN": "D4320",
"DisName": "常德市星都汽车销售服务有限公司",
"CityID": 11902,
"Tel": "0736-7173333",
"Sales_tel": "0736-7179999     ",
"open_service": 0,
"Lng": "111.684341",
"Lat": "29.075249",
"Address": "常德市常德大道3511号 （新世纪汽车城对面）",
"Dealer_type": 1,
"DisSort": "4s店"
},
{
"Id": 11902,
"DealerSN": "D4338",
"DisName": "常德双星星润汽车销售服务有限公司",
"CityID": 11902,
"Tel": "0736-7328777",
"Sales_tel": "0736-7328898",
"open_service": 0,
"Lng": "111.729062",
"Lat": "28.933768",
"Address": "常德经济技术开发区德山镇樟木桥居委会十组",
"Dealer_type": 1,
"DisSort": "4s店"
},
{
"Id": 12195,
"DealerSN": "D4340",
"DisName": "常德三力汽车销售服务有限公司",
"CityID": 11902,
"Tel": "0736-3326666",
"Sales_tel": "0736-3220088",
"open_service": 0,
"Lng": "111.77986",
"Lat": "29.653754",
"Address": "湖南省澧县澧浦街道办事处柳家村三组",
"Dealer_type": 2,
"DisSort": "4s店"
},