[
    {
        "province": "华北地区",
        "city": "鞍山",
        "name": "永安路",
        "addr": "北关街合力委雅圣路26号",
        "addr_1": "辽宁海城大润发二层",
        "worktime": "08:00-21:00",
        "has_snack": "无夜宵",
        "has_ice_cream": "",
        "all": "",
        "lat": "31.1582040000",
        "lng": "121.8146340000",
        "status": 1,
        "provin": 1
    },
    {
        "province": "华北地区",
        "city": "北京",
        "name": "双榆",
        "addr": "海淀区双榆树西里5-8号",
        "addr_1": "UME华星影城对面",
        "worktime": "06:00-24:00",
        "has_snack": 1,
        "has_ice_cream": 1,
        "all": "",
        "lat": "31.1582040000",
        "lng": "121.8146340000",
        "status": 1,
        "provin": 1
    },
    {
        "province": "华北地区",
        "city": "北京",
        "name": "军博",
        "addr": "海淀区复兴路12号",
        "addr_1": "军博对面",
        "worktime": "06:00-23:00",
        "has_snack": "无夜宵",
        "has_ice_cream": "",
        "all": "",
        "lat": "31.1582040000",
        "lng": "121.8146340000",
        "status": 1,
        "provin": 1
    },
    {
        "province": "华北地区",
        "city": "北京",
        "name": "白广",
        "addr": "宣武区广安门内大街210号西华京典首层",
        "addr_1": "菜百商场东侧",
        "worktime": "06:30-23:00",
        "has_snack": 1,
        "has_ice_cream": 1,
        "all": "",
        "lat": "31.1582040000",
        "lng": "121.8146340000",
        "status": 1,
        "provin": 1
    },
    {
        "province": "华北地区",
        "city": "北京",
        "name": "花园",
        "addr": "海淀区花园北路44号",
        "addr_1": "贯通大厦1楼（北医三院对面）",
        "worktime": "05:00-23:00",
        "has_snack": 1,
        "has_ice_cream": 1,
        "all": "",
        "lat": "31.1582040000",
        "lng": "121.8146340000",
        "status": 1,
        "provin": 1
    },
    {
        "province": "华北地区",
        "city": "北京",
        "name": "礼士",
        "addr": "西城区复兴门外大街甲3-7",
        "addr_1": "地铁1号线礼士路站西北口处",
        "worktime": "06:30-23:00",
        "has_snack": 1,
        "has_ice_cream": 1,
        "all": "",
        "lat": "31.1582040000",
        "lng": "121.8146340000",
        "status": 1,
        "provin": 1
    },
    {
        "province": "华北地区",
        "city": "北京",
        "name": "成府",
        "addr": "海淀区五道口华清嘉园7号楼一层",
        "addr_1": "地铁13号线东侧",
        "worktime": "06:30-23:00",
        "has_snack": 1,
        "has_ice_cream": "",
        "all": "",
        "lat": "31.1582040000",
        "lng": "121.8146340000",
        "status": 1,
        "provin": 1
    },
    {
        "province": "华北地区",
        "city": "北京",
        "name": "长椿",
        "addr": "宣武区宣武门西大街18号楼",
        "addr_1": "国华商场一层",
        "worktime": "05:00-24:00",
        "has_snack": 1,
        "has_ice_cream": "",
        "all": "",
        "lat": "31.1582040000",
        "lng": "121.8146340000",
        "status": 1,
        "provin": 1
    },
    {
        "province": "华北地区",
        "city": "北京",
        "name": "安外",
        "addr": "东城区安定门外大街189号天鸿宝景大厦首层",
        "addr_1": "宝景大厦首层（地铁二号线安定门A出口往北）",
        "worktime": "06:00-22:00",
        "has_snack": 1,
        "has_ice_cream": "",
        "all": "",
        "lat": "31.1582040000",
        "lng": "121.8146340000",
        "status": 1,
        "provin": 1
    },
    {
        "province": "华北地区",
        "city": "北京",
        "name": "新华",
        "addr": "通州区新华大街甲92号华联商场一层",
        "addr_1": "华联商场一层",
        "worktime": "06:30-21:00",
        "has_snack": "无夜宵",
        "has_ice_cream": "",
        "all": "",
        "lat": "31.1582040000",
        "lng": "121.8146340000",
        "status": 1,
        "provin": 1
    },
    {
        "province": "华北地区",
        "city": "北京",
        "name": "贵友",
        "addr": "朝阳区建国门外大街甲5号",
        "addr_1": "贵友商场北侧100米处（地铁一号线永安里站）",
        "worktime": "06:00-22:00",
        "has_snack": 1,
        "has_ice_cream": 1,
        "all": "",
        "lat": "31.1582040000",
        "lng": "121.8146340000",
        "status": 1,
        "provin": 1
    },
    {
        "province": "华北地区",
        "city": "北京",
        "name": "中关二",
        "addr": "海淀区中关村广场楔形绿地地下家乐福B2",
        "addr_1": "中关村家乐福地下一层",
        "worktime": "08:00-21:30",
        "has_snack": "无夜宵",
        "has_ice_cream": "",
        "all": "",
        "lat": "31.1582040000",
        "lng": "121.8146340000",
        "status": 1,
        "provin": 1
    },
    {
        "province": "华北地区",
        "city": "北京",
        "name": "广渠",
        "addr": "朝阳区广渠路31号九龙商厦家乐福一层",
        "addr_1": "双井家乐福一层（靠近地铁七号线九龙山站）",
        "worktime": "06:00-24:00",
        "has_snack": 1,
        "has_ice_cream": 1,
        "all": "",
        "lat": "31.1582040000",
        "lng": "121.8146340000",
        "status": 1,
        "provin": 1
    },
    {
        "province": "华北地区",
        "city": "北京",
        "name": "科兴",
        "addr": "丰台区邻枫路1号",
        "addr_1": "欧尚超市3层（靠近富丰桥）",
        "worktime": "08:30-21:30",
        "has_snack": "无夜宵",
        "has_ice_cream": "",
        "all": "",
        "lat": "31.1582040000",
        "lng": "121.8146340000",
        "status": 1,
        "provin": 1
    },
    {
        "province": "华北地区",
        "city": "北京",
        "name": "建外",
        "addr": "朝阳区建国门外大街4号3栋",
        "addr_1": "建外SOHO东区",
        "worktime": "06:00-22:00",
        "has_snack": 1,
        "has_ice_cream": "",
        "all": "",
        "lat": "31.1582040000",
        "lng": "121.8146340000",
        "status": 1,
        "provin": 1
    },
    {
        "province": "华北地区",
        "city": "北京",
        "name": "广顺北",
        "addr": "朝阳区广顺北大街16号华彩中心",
        "addr_1": "华彩中心家乐福三层",
        "worktime": "08:00-21:00",
        "has_snack": "无夜宵",
        "has_ice_cream": 1,
        "all": "",
        "lat": "31.1582040000",
        "lng": "121.8146340000",
        "status": 1,
        "provin": 1
    },
    {
        "province": "华北地区",
        "city": "北京",
        "name": "知春",
        "addr": "海淀区知春路29号",
        "addr_1": "大运村（近地铁十号线知春路站东北口）",
        "worktime": "06:00-24:00",
        "has_snack": 1,
        "has_ice_cream": 1,
        "all": "",
        "lat": "31.1582040000",
        "lng": "121.8146340000",
        "status": 1,
        "provin": 1
    },
    {
        "province": "华北地区",
        "city": "北京",
        "name": "木樨园",
        "addr": "崇文区永定门外大街甲101号",
        "addr_1": "百荣世贸商场2期2楼",
        "worktime": "09:00-20:00",
        "has_snack": "无夜宵",
        "has_ice_cream": "",
        "all": "",
        "lat": "31.1582040000",
        "lng": "121.8146340000",
        "status": 1,
        "provin": 1
    },
    {
        "province": "华北地区",
        "city": "北京",
        "name": "鼎好",
        "addr": "海淀区海淀大街3号鼎好电子大厦501室",
        "addr_1": "鼎好电子大厦五层",
        "worktime": "08:00-20:30",
        "has_snack": "无夜宵",
        "has_ice_cream": "",
        "all": "",
        "lat": "31.1582040000",
        "lng": "121.8146340000",
        "status": 1,
        "provin": 1
    },
    {
        "province": "华北地区",
        "city": "北京",
        "name": "惠新东街",
        "addr": "朝阳区惠新东街17号樱花宾馆1层北侧",
        "addr_1": "对外经济贸易大学西门对面",
        "worktime": "06:00-24:00",
        "has_snack": 1,
        "has_ice_cream": 1,
        "all": "",
        "lat": "31.1582040000",
        "lng": "121.8146340000",
        "status": 1,
        "provin": 1
    },
    {
        "province": "华北地区",
        "city": "北京",
        "name": "西客站二",
        "addr": "丰台区莲花东路118号西站候车大厅第六营业厅",
        "addr_1": "",
        "worktime": "06:00-23:00",
        "has_snack": 1,
        "has_ice_cream": 1,
        "all": "",
        "lat": "31.1582040000",
        "lng": "121.8146340000",
        "status": 1,
        "provin": 1
    },
    {
        "province": "华北地区",
        "city": "北京",
        "name": "复兴门",
        "addr": "西城区复兴门内大街101号",
        "addr_1": "百盛购物中心南楼1楼（靠近金融大街）",
        "worktime": "06:00-23:00",
        "has_snack": 1,
        "has_ice_cream": 1,
        "all": "",
        "lat": "31.1582040000",
        "lng": "121.8146340000",
        "status": 1,
        "provin": 1
    },
    {
        "province": "华北地区",
        "city": "北京",
        "name": "复兴路2",
        "addr": "海淀区复兴路21号",
        "addr_1": "海育大厦国美卖场一层旁（公主坟桥北）",
        "worktime": "06:00-23:00",
        "has_snack": "无夜宵",
        "has_ice_cream": 1,
        "all": "",
        "lat": "31.1582040000",
        "lng": "121.8146340000",
        "status": 1,
        "provin": 1
    },
    {
        "province": "华北地区",
        "city": "北京",
        "name": "朝阳北路",
        "addr": "朝阳区朝阳北路237号复星国际中心101号",
        "addr_1": "复兴国际中心西侧",
        "worktime": "05:30-24:00",
        "has_snack": 1,
        "has_ice_cream": 1,
        "all": "",
        "lat": "31.1582040000",
        "lng": "121.8146340000",
        "status": 1,
        "provin": 1
    },
    {
        "province": "华北地区",
        "city": "北京",
        "name": "运河西路",
        "addr": "通州区运河东大街58号易初莲花超市一层",
        "addr_1": "易初莲花超市一层",
        "worktime": "06:30-22:00",
        "has_snack": "无夜宵",
        "has_ice_cream": "",
        "all": "",
        "lat": "31.1582040000",
        "lng": "121.8146340000",
        "status": 1,
        "provin": 1
    },
    {
        "province": "华北地区",
        "city": "北京",
        "name": "学院南路",
        "addr": "海淀区西外学院南路四道口西北角",
        "addr_1": "四道口西北角",
        "worktime": "06:00-02:00",
        "has_snack": 1,
        "has_ice_cream": 1,
        "all": "",
        "lat": "31.1582040000",
        "lng": "121.8146340000",
        "status": 1,
        "provin": 1
    },
    {
        "province": "华北地区",
        "city": "北京",
        "name": "北三环西路",
        "addr": "北三环西路大钟寺广场一层",
        "addr_1": "大钟寺家乐福入口处",
        "worktime": "06:00-22:00",
        "has_snack": 1,
        "has_ice_cream": 1,
        "all": "",
        "lat": "31.1582040000",
        "lng": "121.8146340000",
        "status": 1,
        "provin": 1
    },
    {
        "province": "华北地区",
        "city": "北京",
        "name": "国贸桥",
        "addr": "朝阳区建国路乙118号京汇大厦一层106号",
        "addr_1": "国贸桥东南角京汇大厦（靠近艾维克大厦）",
        "worktime": "06:30-22:00",
        "has_snack": "无夜宵",
        "has_ice_cream": "",
        "all": "",
        "lat": "31.1582040000",
        "lng": "121.8146340000",
        "status": 1,
        "provin": 1
    },
    {
        "province": "华北地区",
        "city": "北京",
        "name": "北京站",
        "addr": "北京火车站内东侧",
        "addr_1": "",
        "worktime": "05:00-23:00",
        "has_snack": 1,
        "has_ice_cream": "",
        "all": "",
        "lat": "31.1582040000",
        "lng": "121.8146340000",
        "status": 1,
        "provin": 1
    },
    {
        "province": "华北地区",
        "city": "北京",
        "name": "北京站广场",
        "addr": "东城区北京站广场西侧一\\二层独楼",
        "addr_1": "",
        "worktime": "05:00-23:00",
        "has_snack": 1,
        "has_ice_cream": "",
        "all": "",
        "lat": "31.1582040000",
        "lng": "121.8146340000",
        "status": 1,
        "provin": 1
    },
    {
        "province": "华北地区",
        "city": "北京",
        "name": "东四十条",
        "addr": "东四十条乙34号乙34-2号",
        "addr_1": "青蓝大厦西侧",
        "worktime": "05:00-01:00",
        "has_snack": 1,
        "has_ice_cream": 1,
        "all": "",
        "lat": "31.1582040000",
        "lng": "121.8146340000",
        "status": 1,
        "provin": 1
    },
    {
        "province": "华北地区",
        "city": "北京",
        "name": "北京南站",
        "addr": "丰台区北京火车南站地下北出口内东侧商铺",
        "addr_1": "靠近北广场出入口",
        "worktime": "06:30-22:00",
        "has_snack": "无夜宵",
        "has_ice_cream": "",
        "all": "",
        "lat": "31.1582040000",
        "lng": "121.8146340000",
        "status": 1,
        "provin": 1
    },
    {
        "province": "华北地区",
        "city": "北京",
        "name": "黄村",
        "addr": "大兴区黄村镇19号地块绿地中央广场乐购大兴金星店",
        "addr_1": "乐购超市一层",
        "worktime": "07:00-21:30",
        "has_snack": "无夜宵",
        "has_ice_cream": "",
        "all": "",
        "lat": "31.1582040000",
        "lng": "121.8146340000",
        "status": 1,
        "provin": 1
    },
    {
        "province": "华北地区",
        "city": "北京",
        "name": "定福庄",
        "addr": "朝阳区定福庄北里1号院23号楼1层天客隆超市",
        "addr_1": "第二外国语对面天客隆超市一层",
        "worktime": "06:00-22:00",
        "has_snack": "无夜宵",
        "has_ice_cream": "",
        "all": "",
        "lat": "31.1582040000",
        "lng": "121.8146340000",
        "status": 1,
        "provin": 1
    },
    {
        "province": "华北地区",
        "city": "北京",
        "name": "四惠",
        "addr": "朝阳区东四环四惠立交桥东南四惠综合交通枢纽主楼sy202号",
        "addr_1": "",
        "worktime": "06:00-22:00",
        "has_snack": "无夜宵",
        "has_ice_cream": 1,
        "all": "",
        "lat": "31.1582040000",
        "lng": "121.8146340000",
        "status": 1,
        "provin": 1
    },
    {
        "province": "华北地区",
        "city": "北京",
        "name": "北京南站二",
        "addr": "丰台区北京南站交换层围栏外西南角",
        "addr_1": "地铁四号线北京南站出口",
        "worktime": "06:00-23:00",
        "has_snack": "无夜宵",
        "has_ice_cream": "",
        "all": "",
        "lat": "31.1582040000",
        "lng": "121.8146340000",
        "status": 1,
        "provin": 1
    },
    {
        "province": "华北地区",
        "city": "北京",
        "name": "翠微二",
        "addr": "海淀区翠微路12号B1层01E号",
        "addr_1": "“凯德MALL.翠微路”地下一层",
        "worktime": "07:30-21:00",
        "has_snack": "无夜宵",
        "has_ice_cream": 1,
        "all": "",
        "lat": "31.1582040000",
        "lng": "121.8146340000",
        "status": 1,
        "provin": 1
    },
    {
        "province": "华北地区",
        "city": "北京",
        "name": "望京凯德",
        "addr": "朝阳区广顺北大街33号院凯德MALL 望京 B1层01/02号和B1层K12/K13号",
        "addr_1": "望京凯德MALL 地下一层（靠近华联超市入口）",
        "worktime": "08:00-21:30",
        "has_snack": "无夜宵",
        "has_ice_cream": "",
        "all": "",
        "lat": "31.1582040000",
        "lng": "121.8146340000",
        "status": 1,
        "provin": 1
    },
    {
        "province": "华北地区",
        "city": "北京",
        "name": "阜成门",
        "addr": "西城区阜成门内大街313号",
        "addr_1": "靠近阜成门桥东北侧（金融街对面）",
        "worktime": "06:00-23:00",
        "has_snack": "无夜宵",
        "has_ice_cream": "",
        "all": "",
        "lat": "31.1582040000",
        "lng": "121.8146340000",
        "status": 1,
        "provin": 1
    },
    {
        "province": "华北地区",
        "city": "北京",
        "name": "东直门外大街店",
        "addr": "东直门外大街39号交通枢纽南门一层底商",
        "addr_1": "",
        "worktime": "06:00-23:00",
        "has_snack": 1,
        "has_ice_cream": 1,
        "all": "",
        "lat": "31.1582040000",
        "lng": "121.8146340000",
        "status": 1,
        "provin": 1
    },
    {
        "province": "华北地区",
        "city": "北京",
        "name": "柳芳分店",
        "addr": "朝阳区西坝河南路3号社区中心一层",
        "addr_1": "",
        "worktime": "08:00-21:00",
        "has_snack": "无夜宵",
        "has_ice_cream": "",
        "all": "",
        "lat": "31.1582040000",
        "lng": "121.8146340000",
        "status": 1,
        "provin": 1
    },
    {
        "province": "华北地区",
        "city": "北京",
        "name": "东直门医院店",
        "addr": "东城区东直门南小街85号1幢",
        "addr_1": "东直门医院西南角",
        "worktime": "05:30-24:00",
        "has_snack": 1,
        "has_ice_cream": "",
        "all": "",
        "lat": "31.1582040000",
        "lng": "121.8146340000",
        "status": 1,
        "provin": 1
    },
    {
        "province": "华北地区",
        "city": "北京",
        "name": "朝阳路店",
        "addr": "朝阳区朝阳路太平庄路176号卜蜂莲花一层",
        "addr_1": "",
        "worktime": "06:30-22:00",
        "has_snack": "无夜宵",
        "has_ice_cream": 1,
        "all": "",
        "lat": "31.1582040000",
        "lng": "121.8146340000",
        "status": 1,
        "provin": 1
    },
    {
        "province": "华北地区",
        "city": "北京",
        "name": "立汤二店",
        "addr": "昌平区立汤路186号龙德时代广场二层",
        "addr_1": "",
        "worktime": "08:00-21:00",
        "has_snack": "无夜宵",
        "has_ice_cream": 1,
        "all": "",
        "lat": "31.1582040000",
        "lng": "121.8146340000",
        "status": 1,
        "provin": 1
    },
    {
        "province": "华北地区",
        "city": "北京",
        "name": "北京站二店",
        "addr": "东城区北京站内二楼高架东一、二、三、四商亭建筑",
        "addr_1": "站内二楼入口扶梯",
        "worktime": "05:00-23:00",
        "has_snack": 1,
        "has_ice_cream": "",
        "all": "",
        "lat": "31.1582040000",
        "lng": "121.8146340000",
        "status": 1,
        "provin": 1
    },
    {
        "province": "华北地区",
        "city": "北京",
        "name": "安贞路分店",
        "addr": "朝阳区安贞西里五区一号 1层107号",
        "addr_1": "",
        "worktime": "06:00-23:00",
        "has_snack": "无夜宵",
        "has_ice_cream": 1,
        "all": "",
        "lat": "31.1582040000",
        "lng": "121.8146340000",
        "status": 1,
        "provin": 1
    },
    {
        "province": "华北地区",
        "city": "北京",
        "name": "永定路店",
        "addr": "海淀区永定路88号长银大厦4C01号",
        "addr_1": "",
        "worktime": "06:00-22:00",
        "has_snack": "无夜宵",
        "has_ice_cream": 1,
        "all": "",
        "lat": "31.1582040000",
        "lng": "121.8146340000",
        "status": 1,
        "provin": 1
    },
    {
        "province": "华北地区",
        "city": "北京",
        "name": "华普二店",
        "addr": "朝阳区朝阳门外大街19号华普大厦内",
        "addr_1": "",
        "worktime": "05:30-24:00",
        "has_snack": 1,
        "has_ice_cream": 1,
        "all": "",
        "lat": "31.1582040000",
        "lng": "121.8146340000",
        "status": 1,
        "provin": 1
    },
    {
        "province": "华北地区",
        "city": "北京",
        "name": "新街口二店",
        "addr": "西城区新街口北大街3号新街高和商务楼一层",
        "addr_1": "",
        "worktime": "06:00-22:00",
        "has_snack": "无夜宵",
        "has_ice_cream": "",
        "all": "",
        "lat": "31.1582040000",
        "lng": "121.8146340000",
        "status": 1,
        "provin": 1
    },
    {
        "province": "华北地区",
        "city": "朝阳",
        "name": "朝阳大街",
        "addr": "双塔区朝阳大街二段81号大润发超市地下一层",
        "addr_1": "大润发超市地下一层",
        "worktime": "08:00-21:00",
        "has_snack": "无夜宵",
        "has_ice_cream": "",
        "all": "",
        "lat": "31.1582040000",
        "lng": "121.8146340000",
        "status": 1,
        "provin": 1
    },
    {
        "province": "华北地区",
        "city": "大连",
        "name": "黄河路",
        "addr": "沙河口区黄河路665号",
        "addr_1": "家乐福超市地下一层",
        "worktime": "07:30-22:00",
        "has_snack": "无夜宵",
        "has_ice_cream": "",
        "all": "",
        "lat": "31.1582040000",
        "lng": "121.8146340000",
        "status": 1,
        "provin": 1
    },
    {
        "province": "华北地区",
        "city": "北京",
        "name": "亦庄",
        "addr": "经济技术开发区西环北路18号E1-2层",
        "addr_1": "靠近地铁亦庄线亦庄站",
        "worktime": "06:30-22:00",
        "has_snack": "无夜宵",
        "has_ice_cream": "",
        "all": "",
        "lat": "31.1582040000",
        "lng": "121.8146340000",
        "status": 1,
        "provin": 1
    },
    {
        "province": "华北地区",
        "city": "北京",
        "name": "富兴国际",
        "addr": "亦庄开发区天华北街11号院1号楼底商102商铺",
        "addr_1": "",
        "worktime": "06:30-22:00",
        "has_snack": "无夜宵",
        "has_ice_cream": "",
        "all": "",
        "lat": "31.1582040000",
        "lng": "121.8146340000",
        "status": 1,
        "provin": 1
    },
    {
        "province": "华北地区",
        "city": "北京",
        "name": "回龙观店",
        "addr": "昌平区回龙观镇龙域北街3号院1号楼0102室",
        "addr_1": "",
        "worktime": "06:30-22:00",
        "has_snack": "无夜宵",
        "has_ice_cream": "",
        "all": "",
        "lat": "31.1582040000",
        "lng": "121.8146340000",
        "status": 1,
        "provin": 1
    },
    {
        "province": "华北地区",
        "city": "北京",
        "name": "丰台园店",
        "addr": "丰台区中关村科技园区丰台园产业基地二期",
        "addr_1": "",
        "worktime": "07:00-21:00",
        "has_snack": "无夜宵",
        "has_ice_cream": "",
        "all": "",
        "lat": "31.1582040000",
        "lng": "121.8146340000",
        "status": 1,
        "provin": 1
    },
    {
        "province": "华北地区",
        "city": "北京",
        "name": "上地东路店",
        "addr": "海淀区上地东路1号国通创安大厦一层",
        "addr_1": "",
        "worktime": "07:00-21:00",
        "has_snack": "无夜宵",
        "has_ice_cream": "",
        "all": "",
        "lat": "31.1582040000",
        "lng": "121.8146340000",
        "status": 1,
        "provin": 1
    },
    {
        "province": "华北地区",
        "city": "北京",
        "name": "天辰东路店",
        "addr": "朝阳区天辰东路8-10-12号B3",
        "addr_1": "",
        "worktime": "07:00-21:30",
        "has_snack": "无夜宵",
        "has_ice_cream": "",
        "all": "",
        "lat": "31.1582040000",
        "lng": "121.8146340000",
        "status": 1,
        "provin": 1
    },
    {
        "province": "华北地区",
        "city": "北京",
        "name": "建国路SOHO现代城",
        "addr": "朝阳区建国路88（号/幢）7-10号楼现代城",
        "addr_1": "",
        "worktime": "07:00-22:00",
        "has_snack": "无夜宵",
        "has_ice_cream": "",
        "all": "",
        "lat": "31.1582040000",
        "lng": "121.8146340000",
        "status": 1,
        "provin": 1
    },
    {
        "province": "华北地区",
        "city": "大连",
        "name": "鲁迅路店",
        "addr": "中山区鲁迅路25号1单元1跃2层10号",
        "addr_1": "",
        "worktime": "06:00-22:00",
        "has_snack": "无夜宵",
        "has_ice_cream": "",
        "all": "",
        "lat": "31.1582040000",
        "lng": "121.8146340000",
        "status": 1,
        "provin": 1
    },
    {
        "province": "华北地区",
        "city": "青岛",
        "name": "润城",
        "addr": "南区香港中路21号家乐福一层",
        "addr_1": "家乐福一层",
        "worktime": "06:30-21:00",
        "has_snack": "无夜宵",
        "has_ice_cream": "",
        "all": "",
        "lat": "31.1582040000",
        "lng": "121.8146340000",
        "status": 1,
        "provin": 1
    },
    {
        "province": "华北地区",
        "city": "石家庄",
        "name": "中山东路店",
        "addr": "中山东路11号",
        "addr_1": "中山东路南三条乐汇城一层",
        "worktime": "06:30-22:00",
        "has_snack": "无夜宵",
        "has_ice_cream": "",
        "all": "",
        "lat": "31.1582040000",
        "lng": "121.8146340000",
        "status": 1,
        "provin": 1
    },
    {
        "province": "华北地区",
        "city": "天津",
        "name": "天津火车站店",
        "addr": "河东区新兆路天津站后广场六号地铁口",
        "addr_1": "候车大厅西侧14-15检票口",
        "worktime": "06:00-22:00",
        "has_snack": "无夜宵",
        "has_ice_cream": "",
        "all": "",
        "lat": "31.1582040000",
        "lng": "121.8146340000",
        "status": 1,
        "provin": 1
    },
    {
        "province": "华北地区",
        "city": "乌鲁木齐",
        "name": "乌鲁木齐新客站",
        "addr": "经济技术开发区卫星路金阳卫星花园小区C栋201室",
        "addr_1": "",
        "worktime": "07:30-22:00",
        "has_snack": 1,
        "has_ice_cream": "",
        "all": "",
        "lat": "31.1582040000",
        "lng": "121.8146340000",
        "status": 1,
        "provin": 1
    },
    {
        "province": "华北地区",
        "city": "阜新",
        "name": "中华路",
        "addr": "细河区中华路63号大润发一层",
        "addr_1": "大润发超市一层",
        "worktime": "08:00-22:00",
        "has_snack": "无夜宵",
        "has_ice_cream": "",
        "all": "",
        "lat": "31.1582040000",
        "lng": "121.8146340000",
        "status": 1,
        "provin": 1
    },
    {
        "province": "华北地区",
        "city": "葫芦岛",
        "name": "龙湾大街",
        "addr": "龙湾区龙湾大街与文萃路交汇处交叉口葫芦岛店",
        "addr_1": "大润发超市一层",
        "worktime": "08:00-21:30",
        "has_snack": "无夜宵",
        "has_ice_cream": 1,
        "all": "",
        "lat": "31.1582040000",
        "lng": "121.8146340000",
        "status": 1,
        "provin": 1
    },
    {
        "province": "华北地区",
        "city": "沈阳",
        "name": "文艺",
        "addr": "沈河区文艺路80号",
        "addr_1": "大润发超市一层",
        "worktime": "06:30-22:00",
        "has_snack": "无夜宵",
        "has_ice_cream": "",
        "all": "",
        "lat": "31.1582040000",
        "lng": "121.8146340000",
        "status": 1,
        "provin": 1
    },
    {
        "province": "华北地区",
        "city": "沈阳",
        "name": "悦宾街",
        "addr": "沈河区北站一路39号",
        "addr_1": "家乐福超市首层",
        "worktime": "07:30-22:00",
        "has_snack": "无夜宵",
        "has_ice_cream": "",
        "all": "",
        "lat": "31.1582040000",
        "lng": "121.8146340000",
        "status": 1,
        "provin": 1
    },
    {
        "province": "华北地区",
        "city": "沈阳",
        "name": "南京南街",
        "addr": "和平区长白地区南京南街大润发一层",
        "addr_1": "大润发超市一层",
        "worktime": "08:00-21:00",
        "has_snack": "无夜宵",
        "has_ice_cream": "",
        "all": "",
        "lat": "31.1582040000",
        "lng": "121.8146340000",
        "status": 1,
        "provin": 1
    },
    {
        "province": "华北地区",
        "city": "沈阳",
        "name": "桃仙机场",
        "addr": "桃仙国际机场T3航站楼一层到达大厅",
        "addr_1": "",
        "worktime": "06:00-02:00",
        "has_snack": 1,
        "has_ice_cream": "",
        "all": "",
        "lat": "31.1582040000",
        "lng": "121.8146340000",
        "status": 1,
        "provin": 1
    },
    {
        "province": "华北地区",
        "city": "沈阳",
        "name": "皇姑大润发",
        "addr": "皇姑区昆山西路2号12门大润发三层",
        "addr_1": "大润发超市三层",
        "worktime": "08:30-21:00",
        "has_snack": "无早餐无夜宵",
        "has_ice_cream": "",
        "all": "",
        "lat": "31.1582040000",
        "lng": "121.8146340000",
        "status": 1,
        "provin": 1
    },
    {
        "province": "华北地区",
        "city": "天津",
        "name": "南京路",
        "addr": "南开区南京路302号",
        "addr_1": "家乐福超市首层",
        "worktime": "06:30-22:00",
        "has_snack": "无夜宵",
        "has_ice_cream": "",
        "all": "",
        "lat": "31.1582040000",
        "lng": "121.8146340000",
        "status": 1,
        "provin": 1
    },
    {
        "province": "华北地区",
        "city": "天津",
        "name": "建国道",
        "addr": "河北区天津站付广场一层D区",
        "addr_1": "靠近火车站天津站",
        "worktime": "06:00-22:00",
        "has_snack": "无夜宵",
        "has_ice_cream": "",
        "all": "",
        "lat": "31.1582040000",
        "lng": "121.8146340000",
        "status": 1,
        "provin": 1
    },
    {
        "province": "华北地区",
        "city": "天津",
        "name": "新开路",
        "addr": "河东区华昌街嘉华大厦底商一层",
        "addr_1": "",
        "worktime": "06:30-23:00",
        "has_snack": "无夜宵",
        "has_ice_cream": 1,
        "all": "",
        "lat": "31.1582040000",
        "lng": "121.8146340000",
        "status": 1,
        "provin": 1
    },
    {
        "province": "华北地区",
        "city": "天津",
        "name": "鞍山道店",
        "addr": "和平区鞍山道160号1门",
        "addr_1": "天津医科大学总医院",
        "worktime": "06:30-22:00",
        "has_snack": "无夜宵",
        "has_ice_cream": "",
        "all": "",
        "lat": "31.1582040000",
        "lng": "121.8146340000",
        "status": 1,
        "provin": 1
    },
    {
        "province": "华北地区",
        "city": "天津",
        "name": "中山门",
        "addr": "河东区中山门新村中心南路7号",
        "addr_1": "原乐购超市入口处",
        "worktime": "07:00-22:00",
        "has_snack": "无夜宵",
        "has_ice_cream": "",
        "all": "",
        "lat": "31.1582040000",
        "lng": "121.8146340000",
        "status": 1,
        "provin": 1
    },
    {
        "province": "华北地区",
        "city": "天津",
        "name": "辰昌路",
        "addr": "北辰区龙泉道北侧 乐天玛特超市一层",
        "addr_1": "乐天玛特超市一层",
        "worktime": "07:00-22:00",
        "has_snack": "无夜宵",
        "has_ice_cream": "",
        "all": "",
        "lat": "31.1582040000",
        "lng": "121.8146340000",
        "status": 1,
        "provin": 1
    },
    {
        "province": "华北地区",
        "city": "潍坊",
        "name": "青年路",
        "addr": "潍城区青年路428号",
        "addr_1": "金沙广场一层",
        "worktime": "06:30-22:00",
        "has_snack": "无夜宵",
        "has_ice_cream": "",
        "all": "",
        "lat": "31.1582040000",
        "lng": "121.8146340000",
        "status": 1,
        "provin": 1
    },
    {
        "province": "华东地区",
        "city": "蚌埠",
        "name": "凤阳东路",
        "addr": "凤阳东路与解放路交口大润发",
        "addr_1": "",
        "worktime": "08:00-22:00",
        "has_snack": "无夜宵",
        "has_ice_cream": "",
        "all": "",
        "lat": "31.1582040000",
        "lng": "121.8146340000",
        "status": 1,
        "provin": 1
    },
    {
        "province": "华东地区",
        "city": "常州",
        "name": "勤业路",
        "addr": "勤业路285号欧尚超市101商铺",
        "addr_1": "",
        "worktime": "06:30-22:00",
        "has_snack": "无夜宵",
        "has_ice_cream": "",
        "all": "",
        "lat": "31.1582040000",
        "lng": "121.8146340000",
        "status": 1,
        "provin": 1
    },
    {
        "province": "华东地区",
        "city": "常州",
        "name": "万博广场",
        "addr": "武进区武宜中路188号万博广场",
        "addr_1": "人民路交叉口，武进中医院对面",
        "worktime": "07:00-22:00",
        "has_snack": "无夜宵",
        "has_ice_cream": "",
        "all": "",
        "lat": "31.1582040000",
        "lng": "121.8146340000",
        "status": 1,
        "provin": 1
    },
    {
        "province": "华东地区",
        "city": "合肥",
        "name": "合肥高铁南站店",
        "addr": "包河区龙川路合肥高铁南站出发层夹层",
        "addr_1": "合肥高铁出站后前往出发层即到",
        "worktime": "06:00-21:00",
        "has_snack": "无夜宵",
        "has_ice_cream": "",
        "all": "",
        "lat": "31.1582040000",
        "lng": "121.8146340000",
        "status": 1,
        "provin": 1
    },
    {
        "province": "华东地区",
        "city": "杭州",
        "name": "杭州东站二店",
        "addr": "杭州东站出发层HD-3F-61商铺",
        "addr_1": "杭州东站出发层东南角",
        "worktime": "06:00-21:00",
        "has_snack": "无夜宵",
        "has_ice_cream": "",
        "all": "",
        "lat": "31.1582040000",
        "lng": "121.8146340000",
        "status": 1,
        "provin": 1
    },
    {
        "province": "华东地区",
        "city": "杭州",
        "name": "解放路店",
        "addr": "解放路91-83号 “汇和城”内一层部分",
        "addr_1": "天工艺苑一楼",
        "worktime": "06:30-22:00",
        "has_snack": 1,
        "has_ice_cream": "",
        "all": "",
        "lat": "31.1582040000",
        "lng": "121.8146340000",
        "status": 1,
        "provin": 1
    },
    {
        "province": "华东地区",
        "city": "杭州",
        "name": "地铁东城",
        "addr": "江干区九沙大道399号地铁东城",
        "addr_1": "",
        "worktime": "06:30-22:00",
        "has_snack": "无夜宵",
        "has_ice_cream": "",
        "all": "",
        "lat": "31.1582040000",
        "lng": "121.8146340000",
        "status": 1,
        "provin": 1
    },
    {
        "province": "华东地区",
        "city": "嘉兴",
        "name": "长安服务区南店",
        "addr": "嘉兴市、海宁市、长安镇G60高速、长安服务区、南区一楼",
        "addr_1": "海宁西高铁站打车到服务区",
        "worktime": "07:00-21:00",
        "has_snack": "无夜宵",
        "has_ice_cream": "",
        "all": "",
        "lat": "31.1582040000",
        "lng": "121.8146340000",
        "status": 1,
        "provin": 1
    },
    {
        "province": "华东地区",
        "city": "嘉兴",
        "name": "长安服务区北店",
        "addr": "嘉兴市、海宁市、长安镇G61高速、长安服务区、北区一楼",
        "addr_1": "海宁西高铁站打车到服务区",
        "worktime": "07:00-21:00",
        "has_snack": "无夜宵",
        "has_ice_cream": "",
        "all": "",
        "lat": "31.1582040000",
        "lng": "121.8146340000",
        "status": 1,
        "provin": 1
    },
    {
        "province": "华东地区",
        "city": "宁波",
        "name": "金源大道",
        "addr": "杭州湾新区世纪城金源购物中心A栋一层永辉超市旁",
        "addr_1": "",
        "worktime": "06:30-22:00",
        "has_snack": "无夜宵",
        "has_ice_cream": "",
        "all": "",
        "lat": "31.1582040000",
        "lng": "121.8146340000",
        "status": 1,
        "provin": 1
    },
    {
        "province": "华东地区",
        "city": "南京",
        "name": "南京儿童医院店",
        "addr": "建邺区江东南路8号河西儿童医院门诊负一楼",
        "addr_1": "",
        "worktime": "07:00-21:00",
        "has_snack": "无夜宵",
        "has_ice_cream": "",
        "all": "",
        "lat": "31.1582040000",
        "lng": "121.8146340000",
        "status": 1,
        "provin": 1
    },
    {
        "province": "华东地区",
        "city": "南通",
        "name": "虹桥路店",
        "addr": "崇川区虹桥路1号文峰城市广场A座1楼",
        "addr_1": "",
        "worktime": "07:00-22:00",
        "has_snack": "无夜宵",
        "has_ice_cream": "",
        "all": "",
        "lat": "31.1582040000",
        "lng": "121.8146340000",
        "status": 1,
        "provin": 1
    },
    {
        "province": "华东地区",
        "city": "上海",
        "name": "浦东机场",
        "addr": "浦东迎宾大道浦东机场T2航站楼国内到达",
        "addr_1": "2楼国内到达2C",
        "worktime": "06:00-22:00",
        "has_snack": "无夜宵",
        "has_ice_cream": "",
        "all": "",
        "lat": "31.1582040000",
        "lng": "121.8146340000",
        "status": 1,
        "provin": 1
    },
    {
        "province": "华东地区",
        "city": "上海",
        "name": "浦东机场2店",
        "addr": "浦东迎宾大道浦东机场T2航站楼国内出发",
        "addr_1": "3楼国内出发 近29号出口",
        "worktime": "06:00-22:00",
        "has_snack": "无夜宵",
        "has_ice_cream": "",
        "all": "",
        "lat": "31.1582040000",
        "lng": "121.8146340000",
        "status": 1,
        "provin": 1
    },
    {
        "province": "华东地区",
        "city": "上海",
        "name": "宝山路店",
        "addr": "宝山路130号",
        "addr_1": "宝山路地铁站1号出口",
        "worktime": "06:00-22:00",
        "has_snack": "无夜宵",
        "has_ice_cream": "",
        "all": "",
        "lat": "31.1582040000",
        "lng": "121.8146340000",
        "status": 1,
        "provin": 1
    },
    {
        "province": "华东地区",
        "city": "上海",
        "name": "瑞丽",
        "addr": "瑞丽路122号2幢底楼一层",
        "addr_1": "",
        "worktime": "06:00-22:30",
        "has_snack": "无夜宵",
        "has_ice_cream": "",
        "all": "",
        "lat": "31.1582040000",
        "lng": "121.8146340000",
        "status": 1,
        "provin": 1
    },
    {
        "province": "华东地区",
        "city": "上海",
        "name": "岳阳医院店",
        "addr": "虹口区甘河路110号",
        "addr_1": "岳阳医院正门口",
        "worktime": "06:00-22:00",
        "has_snack": "无夜宵",
        "has_ice_cream": "",
        "all": "",
        "lat": "31.1582040000",
        "lng": "121.8146340000",
        "status": 1,
        "provin": 1
    },
    {
        "province": "华东地区",
        "city": "上海",
        "name": "七浦路店",
        "addr": "静安区七浦路320号",
        "addr_1": "七浦路步行街，地铁10号，12号天潼路下6号口出",
        "worktime": "06:00-19:00",
        "has_snack": "无夜宵",
        "has_ice_cream": "",
        "all": "",
        "lat": "31.1582040000",
        "lng": "121.8146340000",
        "status": 1,
        "provin": 1
    },
    {
        "province": "华东地区",
        "city": "上海",
        "name": "安亭",
        "addr": "曹安路5575号轨道交通11号线安亭站",
        "addr_1": "11号线1、2号口出站",
        "worktime": "06:00-21:30",
        "has_snack": "无夜宵",
        "has_ice_cream": "",
        "all": "",
        "lat": "31.1582040000",
        "lng": "121.8146340000",
        "status": 1,
        "provin": 1
    },
    {
        "province": "华东地区",
        "city": "上海",
        "name": "五莲路",
        "addr": "张杨北路777号",
        "addr_1": "6号线五莲路站下来，文峰广场旁边",
        "worktime": "06:00-23:00",
        "has_snack": "无夜宵",
        "has_ice_cream": "",
        "all": "",
        "lat": "31.1582040000",
        "lng": "121.8146340000",
        "status": 1,
        "provin": 1
    },
    {
        "province": "华东地区",
        "city": "绍兴",
        "name": "二环北路店",
        "addr": "二环北路颐高广场一楼",
        "addr_1": "物美超市一楼",
        "worktime": "07:00-22:00",
        "has_snack": "无夜宵",
        "has_ice_cream": "",
        "all": "",
        "lat": "31.1582040000",
        "lng": "121.8146340000",
        "status": 1,
        "provin": 1
    },
    {
        "province": "华东地区",
        "city": "绍兴",
        "name": "环城北路店",
        "addr": "越城区环城北路21号-1",
        "addr_1": "",
        "worktime": "06:00-23:00",
        "has_snack": "无夜宵",
        "has_ice_cream": "",
        "all": "",
        "lat": "31.1582040000",
        "lng": "121.8146340000",
        "status": 1,
        "provin": 1
    },
    {
        "province": "华东地区",
        "city": "台州",
        "name": "市府大道店",
        "addr": "椒江区市府大道555号",
        "addr_1": "世纪联华超市1楼",
        "worktime": "06:30-22:00",
        "has_snack": "无夜宵",
        "has_ice_cream": "",
        "all": "",
        "lat": "31.1582040000",
        "lng": "121.8146340000",
        "status": 1,
        "provin": 1
    },
    {
        "province": "华东地区",
        "city": "台州",
        "name": "台州高铁",
        "addr": "黄岩区台州火车站到达负一层",
        "addr_1": "",
        "worktime": "06.30-22.00",
        "has_snack": "无夜宵",
        "has_ice_cream": "",
        "all": "",
        "lat": "31.1582040000",
        "lng": "121.8146340000",
        "status": 1,
        "provin": 1
    },
    {
        "province": "华东地区",
        "city": "台州",
        "name": "东环大道店",
        "addr": "椒江区东海大道455号",
        "addr_1": "欧尚超市内",
        "worktime": "07:00-22:00",
        "has_snack": "无夜宵",
        "has_ice_cream": "",
        "all": "",
        "lat": "31.1582040000",
        "lng": "121.8146340000",
        "status": 1,
        "provin": 1
    },
    {
        "province": "华东地区",
        "city": "温岭",
        "name": "温岭火车站",
        "addr": "大溪镇利岙村火车站一楼出站口",
        "addr_1": "",
        "worktime": "07:00-21:00",
        "has_snack": "无夜宵",
        "has_ice_cream": "",
        "all": "",
        "lat": "31.1582040000",
        "lng": "121.8146340000",
        "status": 1,
        "provin": 1
    },
    {
        "province": "华东地区",
        "city": "无锡",
        "name": "清南路店",
        "addr": "梁溪区清南路康园88号",
        "addr_1": "无锡市人民医院，儿童医院大门对面",
        "worktime": "06:00-23:00",
        "has_snack": "无夜宵",
        "has_ice_cream": "",
        "all": "",
        "lat": "31.1582040000",
        "lng": "121.8146340000",
        "status": 1,
        "provin": 1
    },
    {
        "province": "华东地区",
        "city": "温州",
        "name": "西城路店",
        "addr": "鹿城区西城路49号",
        "addr_1": "世纪联华超市一楼",
        "worktime": "07:00-22:00",
        "has_snack": "无夜宵",
        "has_ice_cream": "",
        "all": "",
        "lat": "31.1582040000",
        "lng": "121.8146340000",
        "status": 1,
        "provin": 1
    },
    {
        "province": "华东地区",
        "city": "温州",
        "name": "温州南站",
        "addr": "瓯海区温州动车南站地下负一层",
        "addr_1": "",
        "worktime": "06:00-22:00",
        "has_snack": "无夜宵",
        "has_ice_cream": "",
        "all": "",
        "lat": "31.1582040000",
        "lng": "121.8146340000",
        "status": 1,
        "provin": 1
    },
    {
        "province": "华东地区",
        "city": "温州",
        "name": "锦绣路店",
        "addr": "鹿城区锦绣路222号南国大厦",
        "addr_1": "世纪联华超市一楼",
        "worktime": "07:00-22:00",
        "has_snack": "无夜宵",
        "has_ice_cream": "",
        "all": "",
        "lat": "31.1582040000",
        "lng": "121.8146340000",
        "status": 1,
        "provin": 1
    },
    {
        "province": "华东地区",
        "city": "舟山",
        "name": "解放西路",
        "addr": "定海区解放西路21号",
        "addr_1": "",
        "worktime": "06:30-22:00",
        "has_snack": "无夜宵",
        "has_ice_cream": "",
        "all": "",
        "lat": "31.1582040000",
        "lng": "121.8146340000",
        "status": 1,
        "provin": 1
    },
    {
        "province": "华东地区",
        "city": "合肥",
        "name": "美菱大道",
        "addr": "徽州大道与太湖路交叉口(苏果超市内)一楼",
        "addr_1": "",
        "worktime": "07:00-22:00",
        "has_snack": "无夜宵",
        "has_ice_cream": "",
        "all": "",
        "lat": "31.1582040000",
        "lng": "121.8146340000",
        "status": 1,
        "provin": 1
    },
    {
        "province": "华东地区",
        "city": "湖州",
        "name": "湖州高铁店",
        "addr": "浙江省湖州市铁路南站站前广场4栋独立用房（湖州枢纽管理中心ABCD）A幢",
        "addr_1": "",
        "worktime": "06:00-22:00",
        "has_snack": "无夜宵",
        "has_ice_cream": "",
        "all": "",
        "lat": "31.1582040000",
        "lng": "121.8146340000",
        "status": 1,
        "provin": 1
    },
    {
        "province": "华东地区",
        "city": "杭州",
        "name": "庆春",
        "addr": "庆春路62号",
        "addr_1": "",
        "worktime": 1,
        "has_snack": 1,
        "has_ice_cream": 1,
        "all": "是",
        "lat": "31.1582040000",
        "lng": "121.8146340000",
        "status": 1,
        "provin": 1
    },
    {
        "province": "华东地区",
        "city": "杭州",
        "name": "吴山",
        "addr": "上城区华光巷8号",
        "addr_1": "",
        "worktime": "06:00-23:00",
        "has_snack": "无夜宵",
        "has_ice_cream": 1,
        "all": "",
        "lat": "31.1582040000",
        "lng": "121.8146340000",
        "status": 1,
        "provin": 1
    },
    {
        "province": "华东地区",
        "city": "杭州",
        "name": "金海城",
        "addr": "杭海路878号",
        "addr_1": "世纪联华旁边",
        "worktime": 1,
        "has_snack": 1,
        "has_ice_cream": "",
        "all": "是",
        "lat": "31.1582040000",
        "lng": "121.8146340000",
        "status": 1,
        "provin": 1
    },
    {
        "province": "华东地区",
        "city": "杭州",
        "name": "朝晖",
        "addr": "下城区朝晖路168-5号",
        "addr_1": "钛合国际",
        "worktime": 1,
        "has_snack": 1,
        "has_ice_cream": "",
        "all": "是",
        "lat": "31.1582040000",
        "lng": "121.8146340000",
        "status": 1,
        "provin": 1
    },
    {
        "province": "华东地区",
        "city": "杭州",
        "name": "学院路",
        "addr": "西湖区学院路96号",
        "addr_1": "华门世家",
        "worktime": 1,
        "has_snack": 1,
        "has_ice_cream": 1,
        "all": "是",
        "lat": "31.1582040000",
        "lng": "121.8146340000",
        "status": 1,
        "provin": 1
    },
    {
        "province": "华东地区",
        "city": "杭州",
        "name": "双菱路",
        "addr": "江干区双菱路75号",
        "addr_1": "外海商厦",
        "worktime": 1,
        "has_snack": 1,
        "has_ice_cream": 1,
        "all": "是",
        "lat": "31.1582040000",
        "lng": "121.8146340000",
        "status": 1,
        "provin": 1
    },
    {
        "province": "华东地区",
        "city": "杭州",
        "name": "武林路",
        "addr": "下城区武林路470号",
        "addr_1": "武林小广场，万象公园对面",
        "worktime": 1,
        "has_snack": 1,
        "has_ice_cream": 1,
        "all": "是",
        "lat": "31.1582040000",
        "lng": "121.8146340000",
        "status": 1,
        "provin": 1
    },
    {
        "province": "华东地区",
        "city": "杭州",
        "name": "城站",
        "addr": "城站火车站1楼铁道大厦北侧",
        "addr_1": "杭州城站广场北侧",
        "worktime": 1,
        "has_snack": 1,
        "has_ice_cream": "",
        "all": "是",
        "lat": "31.1582040000",
        "lng": "121.8146340000",
        "status": 1,
        "provin": 1
    },
    {
        "province": "华东地区",
        "city": "杭州",
        "name": "凤起路",
        "addr": "凤起路102号",
        "addr_1": "国信房产大厦",
        "worktime": "06:00-23:00",
        "has_snack": "无夜宵",
        "has_ice_cream": 1,
        "all": "",
        "lat": "31.1582040000",
        "lng": "121.8146340000",
        "status": 1,
        "provin": 1
    },
    {
        "province": "华东地区",
        "city": "杭州",
        "name": "莲花街",
        "addr": "西湖区莲花街333号",
        "addr_1": "",
        "worktime": "06:00-23:00",
        "has_snack": "无夜宵",
        "has_ice_cream": 1,
        "all": "",
        "lat": "31.1582040000",
        "lng": "121.8146340000",
        "status": 1,
        "provin": 1
    },
    {
        "province": "华东地区",
        "city": "杭州",
        "name": "运河广场",
        "addr": "拱墅区金华路34号运河广场23号",
        "addr_1": "运河世纪联华",
        "worktime": "周一至周四：08:00-21:30,周五至周日：08:00-21:45",
        "has_snack": "无夜宵",
        "has_ice_cream": "",
        "all": "",
        "lat": "31.1582040000",
        "lng": "121.8146340000",
        "status": 1,
        "provin": 1
    },
    {
        "province": "华东地区",
        "city": "杭州",
        "name": "秋涛路",
        "addr": "秋涛北路248号",
        "addr_1": "华润超市1F",
        "worktime": "06:00-22:00",
        "has_snack": "无夜宵",
        "has_ice_cream": 1,
        "all": "",
        "lat": "31.1582040000",
        "lng": "121.8146340000",
        "status": 1,
        "provin": 1
    },
    {
        "province": "华东地区",
        "city": "杭州",
        "name": "江晖路",
        "addr": "滨江区江晖路1272号",
        "addr_1": "到中嬴国际（联华超市门口）",
        "worktime": "06:30-22:00",
        "has_snack": "无夜宵",
        "has_ice_cream": "",
        "all": "",
        "lat": "31.1582040000",
        "lng": "121.8146340000",
        "status": 1,
        "provin": 1
    },
    {
        "province": "华东地区",
        "city": "杭州",
        "name": "杭州东站",
        "addr": "杭州火车东站商业夹层西北角3号商铺",
        "addr_1": "",
        "worktime": "06:00-21:00",
        "has_snack": "无夜宵",
        "has_ice_cream": 1,
        "all": "",
        "lat": "31.1582040000",
        "lng": "121.8146340000",
        "status": 1,
        "provin": 1
    },
    {
        "province": "华东地区",
        "city": "杭州",
        "name": "北山路",
        "addr": "西湖区北山路84号",
        "addr_1": "西湖岳庙",
        "worktime": "06:30-22:30",
        "has_snack": "无夜宵",
        "has_ice_cream": "",
        "all": "",
        "lat": "31.1582040000",
        "lng": "121.8146340000",
        "status": 1,
        "provin": 1
    },
    {
        "province": "华东地区",
        "city": "杭州",
        "name": "滨盛路二店",
        "addr": "滨江区仁苑商铺65号一楼",
        "addr_1": "建业路平乐路",
        "worktime": "06:00-23:00",
        "has_snack": "无夜宵",
        "has_ice_cream": 1,
        "all": "",
        "lat": "31.1582040000",
        "lng": "121.8146340000",
        "status": 1,
        "provin": 1
    },
    {
        "province": "华东地区",
        "city": "杭州",
        "name": "荆余路店",
        "addr": "余杭区余杭街道 凤新路与荆余路交叉口",
        "addr_1": "江南时代购物中心",
        "worktime": "07:00-22:00",
        "has_snack": "无夜宵",
        "has_ice_cream": 1,
        "all": "",
        "lat": "31.1582040000",
        "lng": "121.8146340000",
        "status": 1,
        "provin": 1
    },
    {
        "province": "华东地区",
        "city": "杭州",
        "name": "余杭塘路店",
        "addr": "西湖区余杭塘路799号五洲国际广场",
        "addr_1": "",
        "worktime": "07:00-22:00",
        "has_snack": "无夜宵",
        "has_ice_cream": "",
        "all": "",
        "lat": "31.1582040000",
        "lng": "121.8146340000",
        "status": 1,
        "provin": 1
    },
    {
        "province": "华东地区",
        "city": "嘉兴",
        "name": "海宁皮革城",
        "addr": "嘉兴海宁市海洲西路201号",
        "addr_1": "海宁皮革城",
        "worktime": "07:00-20:00",
        "has_snack": "无夜宵",
        "has_ice_cream": "",
        "all": "",
        "lat": "31.1582040000",
        "lng": "121.8146340000",
        "status": 1,
        "provin": 1
    },
    {
        "province": "华东地区",
        "city": "宁波",
        "name": "百丈东路",
        "addr": "江东区百丈东路1188号",
        "addr_1": "华光欧尚超市一楼",
        "worktime": "06:00-22:00",
        "has_snack": "无夜宵",
        "has_ice_cream": "",
        "all": "",
        "lat": "31.1582040000",
        "lng": "121.8146340000",
        "status": 1,
        "provin": 1
    },
    {
        "province": "华东地区",
        "city": "宁波",
        "name": "宁波南站",
        "addr": "海曙区宁波南站商业夹层7号铺",
        "addr_1": "",
        "worktime": "06:00-21:00",
        "has_snack": "无夜宵",
        "has_ice_cream": 1,
        "all": "",
        "lat": "31.1582040000",
        "lng": "121.8146340000",
        "status": 1,
        "provin": 1
    },
    {
        "province": "华东地区",
        "city": "宁波",
        "name": "百丈东路二店",
        "addr": "江东区百丈东路92号",
        "addr_1": "",
        "worktime": "06:00-22:00",
        "has_snack": "无夜宵",
        "has_ice_cream": "",
        "all": "",
        "lat": "31.1582040000",
        "lng": "121.8146340000",
        "status": 1,
        "provin": 1
    },
    {
        "province": "华东地区",
        "city": "南京",
        "name": "龙蟠",
        "addr": "龙蟠路111号火车站三楼候车室",
        "addr_1": "",
        "worktime": 1,
        "has_snack": 1,
        "has_ice_cream": 1,
        "all": "是",
        "lat": "31.1582040000",
        "lng": "121.8146340000",
        "status": 1,
        "provin": 1
    },
    {
        "province": "华东地区",
        "city": "南京",
        "name": "秦淮",
        "addr": "秦淮路11号",
        "addr_1": "欧尚超市1楼",
        "worktime": "07:00-22:00",
        "has_snack": "无夜宵",
        "has_ice_cream": "",
        "all": "",
        "lat": "31.1582040000",
        "lng": "121.8146340000",
        "status": 1,
        "provin": 1
    },
    {
        "province": "华东地区",
        "city": "南京",
        "name": "将军大道",
        "addr": "将军大道9号",
        "addr_1": "华润苏果，锦江之星旅馆，南京航空航天大学附近",
        "worktime": 1,
        "has_snack": 1,
        "has_ice_cream": "",
        "all": "是",
        "lat": "31.1582040000",
        "lng": "121.8146340000",
        "status": 1,
        "provin": 1
    },
    {
        "province": "华东地区",
        "city": "南京",
        "name": "应天大街",
        "addr": "应天大街866号",
        "addr_1": "应天大街欧尚超市",
        "worktime": "07:00-22:00",
        "has_snack": "无夜宵",
        "has_ice_cream": 1,
        "all": "",
        "lat": "31.1582040000",
        "lng": "121.8146340000",
        "status": 1,
        "provin": 1
    },
    {
        "province": "华东地区",
        "city": "南京",
        "name": "龙园西路",
        "addr": "龙园西路金海园10号",
        "addr_1": "金润发大卖场附近",
        "worktime": "06:00-23:00",
        "has_snack": "无夜宵",
        "has_ice_cream": "",
        "all": "",
        "lat": "31.1582040000",
        "lng": "121.8146340000",
        "status": 1,
        "provin": 1
    },
    {
        "province": "华东地区",
        "city": "南京",
        "name": "广州路",
        "addr": "鼓楼区广州路5-11号",
        "addr_1": "儿童医院附近",
        "worktime": "06:00-23:00",
        "has_snack": "无夜宵",
        "has_ice_cream": "",
        "all": "",
        "lat": "31.1582040000",
        "lng": "121.8146340000",
        "status": 1,
        "provin": 1
    },
    {
        "province": "华东地区",
        "city": "南京",
        "name": "新街口一",
        "addr": "汉中路1号国际金融中心B1层",
        "addr_1": "东方商城旁",
        "worktime": "08:00-22:00",
        "has_snack": "无夜宵",
        "has_ice_cream": 1,
        "all": "",
        "lat": "31.1582040000",
        "lng": "121.8146340000",
        "status": 1,
        "provin": 1
    },
    {
        "province": "华东地区",
        "city": "南京",
        "name": "南京南站1",
        "addr": "京沪高铁南站hc-2-1号",
        "addr_1": "到达层",
        "worktime": "06:00-21:00",
        "has_snack": "无夜宵",
        "has_ice_cream": "",
        "all": "",
        "lat": "31.1582040000",
        "lng": "121.8146340000",
        "status": 1,
        "provin": 1
    },
    {
        "province": "华东地区",
        "city": "南京",
        "name": "南京南站2",
        "addr": "京沪高铁南站DD-22号",
        "addr_1": "候车层",
        "worktime": "06:00-22:00",
        "has_snack": "无夜宵",
        "has_ice_cream": "",
        "all": "",
        "lat": "31.1582040000",
        "lng": "121.8146340000",
        "status": 1,
        "provin": 1
    },
    {
        "province": "华东地区",
        "city": "南京",
        "name": "中山南路",
        "addr": "秦淮区中山南路393号",
        "addr_1": "",
        "worktime": "06:00-22:00",
        "has_snack": "无夜宵",
        "has_ice_cream": "",
        "all": "",
        "lat": "31.1582040000",
        "lng": "121.8146340000",
        "status": 1,
        "provin": 1
    },
    {
        "province": "华东地区",
        "city": "南京",
        "name": "建宁路",
        "addr": "下关区建宁路8号玉桥市场三期一层",
        "addr_1": "",
        "worktime": "07:00-20:00",
        "has_snack": "无夜宵",
        "has_ice_cream": "",
        "all": "",
        "lat": "31.1582040000",
        "lng": "121.8146340000",
        "status": 1,
        "provin": 1
    },
    {
        "province": "华东地区",
        "city": "南京",
        "name": "汉中路",
        "addr": "白下区汉中路143、145，莫愁路446、448、450号101室",
        "addr_1": "环亚广场一楼",
        "worktime": 1,
        "has_snack": 1,
        "has_ice_cream": "",
        "all": "是",
        "lat": "31.1582040000",
        "lng": "121.8146340000",
        "status": 1,
        "provin": 1
    },
    {
        "province": "华东地区",
        "city": "南京",
        "name": "太平南",
        "addr": "白下区太平南路279号",
        "addr_1": "太平商场",
        "worktime": "06:30-22:00",
        "has_snack": "无夜宵",
        "has_ice_cream": "",
        "all": "",
        "lat": "31.1582040000",
        "lng": "121.8146340000",
        "status": 1,
        "provin": 1
    },
    {
        "province": "华东地区",
        "city": "南京",
        "name": "莲池路",
        "addr": "建邺区莲池路油坊桥地铁站A2楼",
        "addr_1": "油坊桥2号出口",
        "worktime": "06:00-22:00",
        "has_snack": "无夜宵",
        "has_ice_cream": "",
        "all": "",
        "lat": "31.1582040000",
        "lng": "121.8146340000",
        "status": 1,
        "provin": 1
    },
    {
        "province": "华东地区",
        "city": "南京",
        "name": "禄口机场店",
        "addr": "禄口镇禄口国际机场T2候机第2标段A-F-1",
        "addr_1": "",
        "worktime": "06:00-23:00",
        "has_snack": "无夜宵",
        "has_ice_cream": 1,
        "all": "",
        "lat": "31.1582040000",
        "lng": "121.8146340000",
        "status": 1,
        "provin": 1
    },
    {
        "province": "华东地区",
        "city": "南京",
        "name": "明基医院店",
        "addr": "建邺区河西大街71号，南京明基医院住院楼一层",
        "addr_1": "2号线中胜站",
        "worktime": "07:00-21:00",
        "has_snack": "无夜宵",
        "has_ice_cream": "",
        "all": "",
        "lat": "31.1582040000",
        "lng": "121.8146340000",
        "status": 1,
        "provin": 1
    },
    {
        "province": "华东地区",
        "city": "南通",
        "name": "工农路",
        "addr": "崇川区桃园路12号中南购物中心一层东侧",
        "addr_1": "体育会展中心附近",
        "worktime": "07:00-22:00",
        "has_snack": "无夜宵",
        "has_ice_cream": 1,
        "all": "",
        "lat": "31.1582040000",
        "lng": "121.8146340000",
        "status": 1,
        "provin": 1
    },
    {
        "province": "华东地区",
        "city": "南通",
        "name": "海阳路",
        "addr": "如皋市如城镇福寿禄与海阳路交叉口",
        "addr_1": "大润发超市一层",
        "worktime": "07:00-22:00",
        "has_snack": "无夜宵",
        "has_ice_cream": "",
        "all": "",
        "lat": "31.1582040000",
        "lng": "121.8146340000",
        "status": 1,
        "provin": 1
    },
    {
        "province": "华东地区",
        "city": "上海",
        "name": "瑞金",
        "addr": "瑞金二路120号",
        "addr_1": "瑞金医院对面",
        "worktime": 1,
        "has_snack": 1,
        "has_ice_cream": "",
        "all": "是",
        "lat": "31.1582040000",
        "lng": "121.8146340000",
        "status": 1,
        "provin": 1
    },
    {
        "province": "华东地区",
        "city": "上海",
        "name": "公园",
        "addr": "定西路1295号",
        "addr_1": "2号线中山公园站下，巴黎春天对面。",
        "worktime": 1,
        "has_snack": 1,
        "has_ice_cream": 1,
        "all": "是",
        "lat": "31.1582040000",
        "lng": "121.8146340000",
        "status": 1,
        "provin": 1
    },
    {
        "province": "华东地区",
        "city": "上海",
        "name": "控江",
        "addr": "控江路1665号",
        "addr_1": "8号线江浦路站下，新华医院旁边",
        "worktime": 1,
        "has_snack": 1,
        "has_ice_cream": 1,
        "all": "是",
        "lat": "31.1582040000",
        "lng": "121.8146340000",
        "status": 1,
        "provin": 1
    },
    {
        "province": "华东地区",
        "city": "上海",
        "name": "武宁",
        "addr": "武宁路20号家乐福内",
        "addr_1": "13号线武宁路",
        "worktime": "07:00-22:00",
        "has_snack": "无夜宵",
        "has_ice_cream": "",
        "all": "",
        "lat": "31.1582040000",
        "lng": "121.8146340000",
        "status": 1,
        "provin": 1
    },
    {
        "province": "华东地区",
        "city": "上海",
        "name": "兰溪",
        "addr": "兰溪路141号",
        "addr_1": "11号线枫桥路站3号口出来步行10分钟",
        "worktime": 1,
        "has_snack": 1,
        "has_ice_cream": 1,
        "all": "是",
        "lat": "31.1582040000",
        "lng": "121.8146340000",
        "status": 1,
        "provin": 1
    },
    {
        "province": "华东地区",
        "city": "上海",
        "name": "碧云",
        "addr": "碧云路555号家乐福底楼",
        "addr_1": "",
        "worktime": "08:00-21:30",
        "has_snack": "无夜宵",
        "has_ice_cream": "",
        "all": "",
        "lat": "31.1582040000",
        "lng": "121.8146340000",
        "status": 1,
        "provin": 1
    },
    {
        "province": "华东地区",
        "city": "上海",
        "name": "万里",
        "addr": "新村路1500号",
        "addr_1": "",
        "worktime": "06:00-22:00",
        "has_snack": "无夜宵",
        "has_ice_cream": 1,
        "all": "",
        "lat": "31.1582040000",
        "lng": "121.8146340000",
        "status": 1,
        "provin": 1
    },
    {
        "province": "华东地区",
        "city": "上海",
        "name": "南京西",
        "addr": "南京西路2-68号地下1楼",
        "addr_1": "新世界地下一层",
        "worktime": "09:30-22:00",
        "has_snack": "无早餐无夜宵",
        "has_ice_cream": 1,
        "all": "",
        "lat": "31.1582040000",
        "lng": "121.8146340000",
        "status": 1,
        "provin": 1
    },
    {
        "province": "华东地区",
        "city": "上海",
        "name": "广元西",
        "addr": "广元西路98号",
        "addr_1": "",
        "worktime": "06:00-23:00",
        "has_snack": "无夜宵",
        "has_ice_cream": "",
        "all": "",
        "lat": "31.1582040000",
        "lng": "121.8146340000",
        "status": 1,
        "provin": 1
    },
    {
        "province": "华东地区",
        "city": "上海",
        "name": "秣陵",
        "addr": "秣陵路303号",
        "addr_1": "1号线上海火车站1号出口（南广场）",
        "worktime": 1,
        "has_snack": 1,
        "has_ice_cream": "",
        "all": "是",
        "lat": "31.1582040000",
        "lng": "121.8146340000",
        "status": 1,
        "provin": 1
    },
    {
        "province": "华东地区",
        "city": "上海",
        "name": "龙阳",
        "addr": "龙阳路2000号101室",
        "addr_1": "2号线/7号线，龙阳路站下",
        "worktime": "06:00-22:00",
        "has_snack": "无夜宵",
        "has_ice_cream": "",
        "all": "",
        "lat": "31.1582040000",
        "lng": "121.8146340000",
        "status": 1,
        "provin": 1
    },
    {
        "province": "华东地区",
        "city": "上海",
        "name": "百齐",
        "addr": "百齐路东方商厦底楼",
        "addr_1": "",
        "worktime": "周一至周四：10:30-21:30 ,周五至周日及节假日：10:00-22:00",
        "has_snack": "无早餐无夜宵",
        "has_ice_cream": "",
        "all": "",
        "lat": "31.1582040000",
        "lng": "121.8146340000",
        "status": 1,
        "provin": 1
    },
    {
        "province": "华东地区",
        "city": "上海",
        "name": "巨峰",
        "addr": "巨峰路239号",
        "addr_1": "家乐福1楼",
        "worktime": "06:00-22:00",
        "has_snack": "无夜宵",
        "has_ice_cream": "",
        "all": "",
        "lat": "31.1582040000",
        "lng": "121.8146340000",
        "status": 1,
        "provin": 1
    },
    {
        "province": "华东地区",
        "city": "上海",
        "name": "长寿",
        "addr": "长寿路457号",
        "addr_1": "",
        "worktime": 1,
        "has_snack": 1,
        "has_ice_cream": "",
        "all": "是",
        "lat": "31.1582040000",
        "lng": "121.8146340000",
        "status": 1,
        "provin": 1
    },
    {
        "province": "华东地区",
        "city": "上海",
        "name": "徐泾",
        "addr": "沪青平公路1829号",
        "addr_1": "",
        "worktime": "08:00-22:00",
        "has_snack": "无夜宵",
        "has_ice_cream": "",
        "all": "",
        "lat": "31.1582040000",
        "lng": "121.8146340000",
        "status": 1,
        "provin": 1
    },
    {
        "province": "华东地区",
        "city": "上海",
        "name": "张江高科",
        "addr": "高科中路2860号216铺位",
        "addr_1": "张江家乐福2楼",
        "worktime": "08:00-21:00",
        "has_snack": "无夜宵",
        "has_ice_cream": "",
        "all": "",
        "lat": "31.1582040000",
        "lng": "121.8146340000",
        "status": 1,
        "provin": 1
    },
    {
        "province": "华东地区",
        "city": "上海",
        "name": "妙镜路",
        "addr": "妙境路1118号家乐福一楼",
        "addr_1": "家乐福一楼",
        "worktime": "07:00-22:00",
        "has_snack": "无夜宵",
        "has_ice_cream": "",
        "all": "",
        "lat": "31.1582040000",
        "lng": "121.8146340000",
        "status": 1,
        "provin": 1
    },
    {
        "province": "华东地区",
        "city": "上海",
        "name": "万源路",
        "addr": "万源路380号",
        "addr_1": "",
        "worktime": 1,
        "has_snack": 1,
        "has_ice_cream": 1,
        "all": "是",
        "lat": "31.1582040000",
        "lng": "121.8146340000",
        "status": 1,
        "provin": 1
    },
    {
        "province": "华东地区",
        "city": "上海",
        "name": "赤峰路",
        "addr": "轨道交通3号线赤峰路站1号出口",
        "addr_1": "",
        "worktime": "06:00-23:00",
        "has_snack": "无夜宵",
        "has_ice_cream": 1,
        "all": "",
        "lat": "31.1582040000",
        "lng": "121.8146340000",
        "status": 1,
        "provin": 1
    },
    {
        "province": "华东地区",
        "city": "上海",
        "name": "漕溪路",
        "addr": "轨道交通3号线漕溪路站101号",
        "addr_1": "3号线漕溪路站1号口",
        "worktime": "06:00-22:00",
        "has_snack": "无夜宵",
        "has_ice_cream": "",
        "all": "",
        "lat": "31.1582040000",
        "lng": "121.8146340000",
        "status": 1,
        "provin": 1
    },
    {
        "province": "华东地区",
        "city": "上海",
        "name": "虹桥路",
        "addr": "凯旋路1509号",
        "addr_1": "3/4号线虹桥路站1号/3号出口",
        "worktime": "06:00-22:00",
        "has_snack": "无夜宵",
        "has_ice_cream": "",
        "all": "",
        "lat": "31.1582040000",
        "lng": "121.8146340000",
        "status": 1,
        "provin": 1
    },
    {
        "province": "华东地区",
        "city": "上海",
        "name": "中亚",
        "addr": "梅园路330号",
        "addr_1": "1号线上海火车站5号出口（天目西路梅园路口）",
        "worktime": 1,
        "has_snack": 1,
        "has_ice_cream": 1,
        "all": "是",
        "lat": "31.1582040000",
        "lng": "121.8146340000",
        "status": 1,
        "provin": 1
    },
    {
        "province": "华东地区",
        "city": "上海",
        "name": "东安路",
        "addr": "东安路263-1号",
        "addr_1": "地铁1号、4号、4号",
        "worktime": 1,
        "has_snack": 1,
        "has_ice_cream": "",
        "all": "是",
        "lat": "31.1582040000",
        "lng": "121.8146340000",
        "status": 1,
        "provin": 1
    },
    {
        "province": "华东地区",
        "city": "上海",
        "name": "南方商城",
        "addr": "闵行区沪闵路7388号",
        "addr_1": "地铁1号线",
        "worktime": "06:00-23:00",
        "has_snack": "无夜宵",
        "has_ice_cream": "",
        "all": "",
        "lat": "31.1582040000",
        "lng": "121.8146340000",
        "status": 1,
        "provin": 1
    },
    {
        "province": "华东地区",
        "city": "上海",
        "name": "虹桥高铁",
        "addr": "虹桥高铁地下一层B1-9",
        "addr_1": "2号线或10号线虹桥火车站下",
        "worktime": "06:00-22:00",
        "has_snack": "无夜宵",
        "has_ice_cream": "",
        "all": "",
        "lat": "31.1582040000",
        "lng": "121.8146340000",
        "status": 1,
        "provin": 1
    },
    {
        "province": "华东地区",
        "city": "上海",
        "name": "卫清西路",
        "addr": "卫清西路168弄",
        "addr_1": "金山百联一层",
        "worktime": "08:00-22:00",
        "has_snack": "无夜宵",
        "has_ice_cream": 1,
        "all": "",
        "lat": "31.1582040000",
        "lng": "121.8146340000",
        "status": 1,
        "provin": 1
    },
    {
        "province": "华东地区",
        "city": "上海",
        "name": "宜山路",
        "addr": "宜山路637号",
        "addr_1": "地铁3号、4号、9号线",
        "worktime": 1,
        "has_snack": 1,
        "has_ice_cream": 1,
        "all": "是",
        "lat": "31.1582040000",
        "lng": "121.8146340000",
        "status": 1,
        "provin": 1
    },
    {
        "province": "华东地区",
        "city": "上海",
        "name": "漕宝路",
        "addr": "漕宝路1096号",
        "addr_1": "",
        "worktime": "06:00-23:00",
        "has_snack": "无夜宵",
        "has_ice_cream": "",
        "all": "",
        "lat": "31.1582040000",
        "lng": "121.8146340000",
        "status": 1,
        "provin": 1
    },
    {
        "province": "华东地区",
        "city": "上海",
        "name": "浦东南路",
        "addr": "浦东南路1085号1层3室",
        "addr_1": "新梅国际广场后门",
        "worktime": "06:00-23:00",
        "has_snack": "无夜宵",
        "has_ice_cream": 1,
        "all": "",
        "lat": "31.1582040000",
        "lng": "121.8146340000",
        "status": 1,
        "provin": 1
    },
    {
        "province": "华东地区",
        "city": "上海",
        "name": "苗圃路",
        "addr": "苗圃路212、216号",
        "addr_1": "公利医院正门对门",
        "worktime": "06:00-23:00",
        "has_snack": 1,
        "has_ice_cream": "",
        "all": "",
        "lat": "31.1582040000",
        "lng": "121.8146340000",
        "status": 1,
        "provin": 1
    },
    {
        "province": "华东地区",
        "city": "上海",
        "name": "虹桥高铁2店",
        "addr": "虹桥站出发层夹层",
        "addr_1": "",
        "worktime": "05:30-21:00",
        "has_snack": "无夜宵",
        "has_ice_cream": "",
        "all": "",
        "lat": "31.1582040000",
        "lng": "121.8146340000",
        "status": 1,
        "provin": 1
    },
    {
        "province": "华东地区",
        "city": "上海",
        "name": "东靖路",
        "addr": "浦东新区东靖路1881号",
        "addr_1": "万嘉广场1楼",
        "worktime": "07:00-22:00",
        "has_snack": "无夜宵",
        "has_ice_cream": 1,
        "all": "",
        "lat": "31.1582040000",
        "lng": "121.8146340000",
        "status": 1,
        "provin": 1
    },
    {
        "province": "华东地区",
        "city": "上海",
        "name": "松汇中路",
        "addr": "松江区松汇中路568号",
        "addr_1": "鹿都广场沃尔玛超市内",
        "worktime": "07:00-22:00",
        "has_snack": "无夜宵",
        "has_ice_cream": "",
        "all": "",
        "lat": "31.1582040000",
        "lng": "121.8146340000",
        "status": 1,
        "provin": 1
    },
    {
        "province": "华东地区",
        "city": "上海",
        "name": "平城路",
        "addr": "嘉定区平城路1188号-6",
        "addr_1": "地铁11号线嘉定北站1.2号口出站",
        "worktime": "06:00-21:30",
        "has_snack": "无夜宵",
        "has_ice_cream": 1,
        "all": "",
        "lat": "31.1582040000",
        "lng": "121.8146340000",
        "status": 1,
        "provin": 1
    },
    {
        "province": "华东地区",
        "city": "上海",
        "name": "沪闵路",
        "addr": "徐汇区沪闵路9001号",
        "addr_1": "地铁1号线、3号线",
        "worktime": "06:00-22:00",
        "has_snack": "无夜宵",
        "has_ice_cream": "",
        "all": "",
        "lat": "31.1582040000",
        "lng": "121.8146340000",
        "status": 1,
        "provin": 1
    },
    {
        "province": "华东地区",
        "city": "上海",
        "name": "上海南站二",
        "addr": "上海南站展厅层C109商铺",
        "addr_1": "地铁1号线、3号线",
        "worktime": "06:00-22:00",
        "has_snack": "无夜宵",
        "has_ice_cream": 1,
        "all": "",
        "lat": "31.1582040000",
        "lng": "121.8146340000",
        "status": 1,
        "provin": 1
    },
    {
        "province": "华东地区",
        "city": "上海",
        "name": "梅家浜路",
        "addr": "松江区梅家浜路1500号",
        "addr_1": "三湘财富广场",
        "worktime": "06:00-22:00",
        "has_snack": "无夜宵",
        "has_ice_cream": 1,
        "all": "",
        "lat": "31.1582040000",
        "lng": "121.8146340000",
        "status": 1,
        "provin": 1
    },
    {
        "province": "华东地区",
        "city": "上海",
        "name": "莲花南路",
        "addr": "闵行区春申路2801号大润发超市一层",
        "addr_1": "大润发超市一层",
        "worktime": "06:00-23:00",
        "has_snack": "无夜宵",
        "has_ice_cream": 1,
        "all": "",
        "lat": "31.1582040000",
        "lng": "121.8146340000",
        "status": 1,
        "provin": 1
    },
    {
        "province": "华东地区",
        "city": "上海",
        "name": "杨高中路",
        "addr": "杨浦区杨高中路2128 号L1层正大生活馆内",
        "addr_1": "卜峰莲花超市1楼",
        "worktime": "07:00-22:00",
        "has_snack": "无夜宵",
        "has_ice_cream": "",
        "all": "",
        "lat": "31.1582040000",
        "lng": "121.8146340000",
        "status": 1,
        "provin": 1
    },
    {
        "province": "华东地区",
        "city": "上海",
        "name": "北广场",
        "addr": "中兴路1618号火车站北广场",
        "addr_1": "地铁3号4号线上海火车站3号出口（北广场）",
        "worktime": "06:00-23:00",
        "has_snack": "无夜宵",
        "has_ice_cream": 1,
        "all": "",
        "lat": "31.1582040000",
        "lng": "121.8146340000",
        "status": 1,
        "provin": 1
    },
    {
        "province": "华东地区",
        "city": "上海",
        "name": "嘉定西站",
        "addr": "嘉定区柳梁路155弄4号106",
        "addr_1": "陈家山路与胜辛路路口",
        "worktime": "06:00-21:30",
        "has_snack": "无夜宵",
        "has_ice_cream": "",
        "all": "",
        "lat": "31.1582040000",
        "lng": "121.8146340000",
        "status": 1,
        "provin": 1
    },
    {
        "province": "华东地区",
        "city": "上海",
        "name": "九亭地铁站",
        "addr": "松江区沪松公路1501弄",
        "addr_1": "9号线九亭地铁站3号口左转100米",
        "worktime": "06:00-22:00",
        "has_snack": "无夜宵",
        "has_ice_cream": "",
        "all": "",
        "lat": "31.1582040000",
        "lng": "121.8146340000",
        "status": 1,
        "provin": 1
    },
    {
        "province": "华东地区",
        "city": "上海",
        "name": "乌鲁木齐中路",
        "addr": "静安区乌鲁木齐中路-3号",
        "addr_1": "华山医院正门对面",
        "worktime": 1,
        "has_snack": 1,
        "has_ice_cream": 1,
        "all": "是",
        "lat": "31.1582040000",
        "lng": "121.8146340000",
        "status": 1,
        "provin": 1
    },
    {
        "province": "华东地区",
        "city": "上海",
        "name": "瞿溪路",
        "addr": "黄浦区瞿溪路469号2楼",
        "addr_1": "8号线西藏南路5号口",
        "worktime": "06:00-23:00",
        "has_snack": "无夜宵",
        "has_ice_cream": 1,
        "all": "",
        "lat": "31.1582040000",
        "lng": "121.8146340000",
        "status": 1,
        "provin": 1
    },
    {
        "province": "华东地区",
        "city": "上海",
        "name": "公园东路",
        "addr": "青浦区公园东路1289弄富绅商业中心",
        "addr_1": "",
        "worktime": "06:00-22:00",
        "has_snack": "无夜宵",
        "has_ice_cream": "",
        "all": "",
        "lat": "31.1582040000",
        "lng": "121.8146340000",
        "status": 1,
        "provin": 1
    },
    {
        "province": "华东地区",
        "city": "上海",
        "name": "仁济医院店",
        "addr": "浦东新区浦建路160仁济医院门诊13号大楼B1之场地",
        "addr_1": "仁济医院13号门诊大楼地下一楼",
        "worktime": "06:30-21:00",
        "has_snack": "无夜宵",
        "has_ice_cream": "",
        "all": "",
        "lat": "31.1582040000",
        "lng": "121.8146340000",
        "status": 1,
        "provin": 1
    },
    {
        "province": "华东地区",
        "city": "上海",
        "name": "虹桥高铁3店",
        "addr": "虹桥站出发层夹层",
        "addr_1": "",
        "worktime": "05:30-21:00",
        "has_snack": "无夜宵",
        "has_ice_cream": 1,
        "all": "",
        "lat": "31.1582040000",
        "lng": "121.8146340000",
        "status": 1,
        "provin": 1
    },
    {
        "province": "华东地区",
        "city": "上海",
        "name": "延长中路店",
        "addr": "延长中路310号",
        "addr_1": "第十人民医院对面",
        "worktime": 1,
        "has_snack": "无夜宵",
        "has_ice_cream": 1,
        "all": "是",
        "lat": "31.1582040000",
        "lng": "121.8146340000",
        "status": 1,
        "provin": 1
    },
    {
        "province": "华东地区",
        "city": "上海",
        "name": "锦江乐园地铁店",
        "addr": "沪闵路8095号",
        "addr_1": "地铁1号线锦江乐园站北2出口",
        "worktime": "06:00-23:00",
        "has_snack": "无夜宵",
        "has_ice_cream": 1,
        "all": "",
        "lat": "31.1582040000",
        "lng": "121.8146340000",
        "status": 1,
        "provin": 1
    },
    {
        "province": "华东地区",
        "city": "上海",
        "name": "金沙江路店",
        "addr": "普陀区3,4号线金沙江路站凯旋北路宁夏路路口",
        "addr_1": "3号、4号线金沙江路站",
        "worktime": "06:00-22:00",
        "has_snack": "无夜宵",
        "has_ice_cream": 1,
        "all": "",
        "lat": "31.1582040000",
        "lng": "121.8146340000",
        "status": 1,
        "provin": 1
    },
    {
        "province": "华东地区",
        "city": "上海",
        "name": "共康",
        "addr": "共和新路4760号",
        "addr_1": "1号线共康路下3号口",
        "worktime": "06:00-22:00",
        "has_snack": "无夜宵",
        "has_ice_cream": 1,
        "all": "",
        "lat": "31.1582040000",
        "lng": "121.8146340000",
        "status": 1,
        "provin": 1
    },
    {
        "province": "华东地区",
        "city": "上海",
        "name": "江场西路店",
        "addr": "江场西路299弄17号商铺",
        "addr_1": "",
        "worktime": "7:00-21:00",
        "has_snack": "无夜宵",
        "has_ice_cream": 1,
        "all": "",
        "lat": "31.1582040000",
        "lng": "121.8146340000",
        "status": 1,
        "provin": 1
    },
    {
        "province": "华东地区",
        "city": "上海",
        "name": "金沙江二店",
        "addr": "普陀区金沙江路1685号15幢B1-105",
        "addr_1": "",
        "worktime": "07:30-21:30",
        "has_snack": "无夜宵",
        "has_ice_cream": 1,
        "all": "",
        "lat": "31.1582040000",
        "lng": "121.8146340000",
        "status": 1,
        "provin": 1
    },
    {
        "province": "华东地区",
        "city": "上海",
        "name": "申长路店",
        "addr": "闵行区申长路668号101-2、101-4、101-5、101-6",
        "addr_1": "",
        "worktime": "06:30-22:00",
        "has_snack": "无夜宵",
        "has_ice_cream": "",
        "all": "",
        "lat": "31.1582040000",
        "lng": "121.8146340000",
        "status": 1,
        "provin": 1
    },
    {
        "province": "华东地区",
        "city": "上海",
        "name": "市光路",
        "addr": "杨浦区市光路738号",
        "addr_1": "",
        "worktime": "07:00-22:00",
        "has_snack": "无夜宵",
        "has_ice_cream": "",
        "all": "",
        "lat": "31.1582040000",
        "lng": "121.8146340000",
        "status": 1,
        "provin": 1
    },
    {
        "province": "华东地区",
        "city": "上海",
        "name": "银翔路",
        "addr": "嘉定区银翔路609号",
        "addr_1": "",
        "worktime": "06:30-22:00",
        "has_snack": "无夜宵",
        "has_ice_cream": "",
        "all": "",
        "lat": "31.1582040000",
        "lng": "121.8146340000",
        "status": 1,
        "provin": 1
    },
    {
        "province": "华东地区",
        "city": "上海",
        "name": "江月路",
        "addr": "闵行区浦江镇江月路1850弄1-6号B1层",
        "addr_1": "",
        "worktime": "08:00-22:00",
        "has_snack": "无夜宵",
        "has_ice_cream": 1,
        "all": "",
        "lat": "31.1582040000",
        "lng": "121.8146340000",
        "status": 1,
        "provin": 1
    },
    {
        "province": "华东地区",
        "city": "上海",
        "name": "莘松路店",
        "addr": "莘松路58号4幢",
        "addr_1": "06:00-22:00",
        "worktime": "08:00-22:00",
        "has_snack": "无夜宵",
        "has_ice_cream": 1,
        "all": "",
        "lat": "31.1582040000",
        "lng": "121.8146340000",
        "status": 1,
        "provin": 1
    },
    {
        "province": "华东地区",
        "city": "苏州",
        "name": "星海街",
        "addr": "苏州工业园区星海街199号",
        "addr_1": "星海生活广场B区",
        "worktime": "06:00-21:30",
        "has_snack": "无夜宵",
        "has_ice_cream": "",
        "all": "",
        "lat": "31.1582040000",
        "lng": "121.8146340000",
        "status": 1,
        "provin": 1
    },
    {
        "province": "华东地区",
        "city": "苏州",
        "name": "苏州北站",
        "addr": "苏州北站GTSZ-1号商铺",
        "addr_1": "",
        "worktime": "07:00-21:00",
        "has_snack": "无夜宵",
        "has_ice_cream": 1,
        "all": "",
        "lat": "31.1582040000",
        "lng": "121.8146340000",
        "status": 1,
        "provin": 1
    },
    {
        "province": "华东地区",
        "city": "苏州",
        "name": "解放东路",
        "addr": "解放东路13号大润发超市苏福店一层",
        "addr_1": "靠近德合小商品市场",
        "worktime": "08:00-22:00",
        "has_snack": "无夜宵",
        "has_ice_cream": "",
        "all": "",
        "lat": "31.1582040000",
        "lng": "121.8146340000",
        "status": 1,
        "provin": 1
    },
    {
        "province": "华东地区",
        "city": "苏州",
        "name": "星塘街",
        "addr": "娄葑东区星塘街东，淞江路南欧尚商业中心内1层",
        "addr_1": "星塘街欧尚超市",
        "worktime": "07:00-22:00",
        "has_snack": "无夜宵",
        "has_ice_cream": "",
        "all": "",
        "lat": "31.1582040000",
        "lng": "121.8146340000",
        "status": 1,
        "provin": 1
    },
    {
        "province": "华东地区",
        "city": "苏州",
        "name": "前进东路",
        "addr": "昆山前进东路世茂广场",
        "addr_1": "大润发超市一层",
        "worktime": "07:00-22:00",
        "has_snack": "无夜宵",
        "has_ice_cream": 1,
        "all": "",
        "lat": "31.1582040000",
        "lng": "121.8146340000",
        "status": 1,
        "provin": 1
    },
    {
        "province": "华东地区",
        "city": "苏州",
        "name": "道前街",
        "addr": "姑苏区人民路1001号",
        "addr_1": "",
        "worktime": "06:00-22:00",
        "has_snack": "无夜宵",
        "has_ice_cream": 1,
        "all": "",
        "lat": "31.1582040000",
        "lng": "121.8146340000",
        "status": 1,
        "provin": 1
    },
    {
        "province": "华东地区",
        "city": "绍兴",
        "name": "胜利东路",
        "addr": "胜利东路386号",
        "addr_1": "欧尚超市一楼",
        "worktime": "06:00-23:00",
        "has_snack": 1,
        "has_ice_cream": "",
        "all": "",
        "lat": "31.1582040000",
        "lng": "121.8146340000",
        "status": 1,
        "provin": 1
    },
    {
        "province": "华东地区",
        "city": "绍兴",
        "name": "市民大道",
        "addr": "上虞市民大道559号",
        "addr_1": "大润发超市一楼",
        "worktime": "07:00-22:00",
        "has_snack": "无夜宵",
        "has_ice_cream": "",
        "all": "",
        "lat": "31.1582040000",
        "lng": "121.8146340000",
        "status": 1,
        "provin": 1
    },
    {
        "province": "华东地区",
        "city": "绍兴",
        "name": "世纪街店",
        "addr": "袍江区世纪街1号",
        "addr_1": "大润发超市一楼",
        "worktime": "07:00-22:00",
        "has_snack": "无夜宵",
        "has_ice_cream": "",
        "all": "",
        "lat": "31.1582040000",
        "lng": "121.8146340000",
        "status": 1,
        "provin": 1
    },
    {
        "province": "华东地区",
        "city": "无锡",
        "name": "凤翔路",
        "addr": "凤翔路985号",
        "addr_1": "凤翔家乐福",
        "worktime": "07:00-22:00",
        "has_snack": "无夜宵",
        "has_ice_cream": "",
        "all": "",
        "lat": "31.1582040000",
        "lng": "121.8146340000",
        "status": 1,
        "provin": 1
    },
    {
        "province": "华东地区",
        "city": "无锡",
        "name": "通江大道",
        "addr": "综合交通枢纽F2地块站北汽车站一层",
        "addr_1": "高铁出站口",
        "worktime": "06:00-20:00",
        "has_snack": "无夜宵",
        "has_ice_cream": "",
        "all": "",
        "lat": "31.1582040000",
        "lng": "121.8146340000",
        "status": 1,
        "provin": 1
    },
    {
        "province": "华东地区",
        "city": "无锡",
        "name": "通江大道2",
        "addr": "通江大道无锡综合交通枢纽B2地块综合楼",
        "addr_1": "高铁出站往长途汽车站方向有指引",
        "worktime": "06:00-22:00",
        "has_snack": "无夜宵",
        "has_ice_cream": 1,
        "all": "",
        "lat": "31.1582040000",
        "lng": "121.8146340000",
        "status": 1,
        "provin": 1
    },
    {
        "province": "华东地区",
        "city": "无锡",
        "name": "万顺路",
        "addr": "万科城市花园三区",
        "addr_1": "华润万家对面",
        "worktime": "06:00-22:30",
        "has_snack": "无夜宵",
        "has_ice_cream": "",
        "all": "",
        "lat": "31.1582040000",
        "lng": "121.8146340000",
        "status": 1,
        "provin": 1
    },
    {
        "province": "华东地区",
        "city": "无锡",
        "name": "兴源北路",
        "addr": "兴源北路600号103",
        "addr_1": "无锡市三院对面",
        "worktime": "06:00-22:00",
        "has_snack": "无夜宵",
        "has_ice_cream": "",
        "all": "",
        "lat": "31.1582040000",
        "lng": "121.8146340000",
        "status": 1,
        "provin": 1
    },
    {
        "province": "华东地区",
        "city": "无锡",
        "name": "寿山路店",
        "addr": "江阴市寿山路133号",
        "addr_1": "",
        "worktime": "06:00-22:00",
        "has_snack": "无夜宵",
        "has_ice_cream": "",
        "all": "",
        "lat": "31.1582040000",
        "lng": "121.8146340000",
        "status": 1,
        "provin": 1
    },
    {
        "province": "华东地区",
        "city": "无锡",
        "name": "中山路店",
        "addr": "中山路88-1号",
        "addr_1": "明珠大厦1楼",
        "worktime": "06:00-23:00",
        "has_snack": "无夜宵",
        "has_ice_cream": 1,
        "all": "",
        "lat": "31.1582040000",
        "lng": "121.8146340000",
        "status": 1,
        "provin": 1
    },
    {
        "province": "华东地区",
        "city": "镇江",
        "name": "扬子江路",
        "addr": "大港新区扬子江路123号",
        "addr_1": "大润发超市内",
        "worktime": "08:00-22:00",
        "has_snack": "无夜宵",
        "has_ice_cream": "",
        "all": "",
        "lat": "31.1582040000",
        "lng": "121.8146340000",
        "status": 1,
        "provin": 1
    },
    {
        "province": "华东地区",
        "city": "舟山",
        "name": "东港",
        "addr": "普陀区兴普大道266号",
        "addr_1": "欧尚超市",
        "worktime": "06:00-24:00",
        "has_snack": "无夜宵",
        "has_ice_cream": 1,
        "all": "",
        "lat": "31.1582040000",
        "lng": "121.8146340000",
        "status": 1,
        "provin": 1
    },
    {
        "province": "华东地区",
        "city": "舟山",
        "name": "临城",
        "addr": "临城新区体育路189号",
        "addr_1": "乐购超市",
        "worktime": "07:00-22:00",
        "has_snack": "无夜宵",
        "has_ice_cream": 1,
        "all": "",
        "lat": "31.1582040000",
        "lng": "121.8146340000",
        "status": 1,
        "provin": 1
    },
    {
        "province": "中南地区",
        "city": "西双版纳",
        "name": "西双版纳嘎洒机场店",
        "addr": "景洪市嘎洒机场二楼出发厅A-16",
        "addr_1": "",
        "worktime": "06:30-23:00",
        "has_snack": "无夜宵",
        "has_ice_cream": "",
        "all": "",
        "lat": "31.1582040000",
        "lng": "121.8146340000",
        "status": 1,
        "provin": 1
    },
    {
        "province": "中南地区",
        "city": "东莞",
        "name": "常平",
        "addr": "常平镇市场路1号百花时代广场一楼",
        "addr_1": "百花时代广场一楼",
        "worktime": "07:00-23:00",
        "has_snack": "无夜宵",
        "has_ice_cream": "",
        "all": "",
        "lat": "31.1582040000",
        "lng": "121.8146340000",
        "status": 1,
        "provin": 1
    },
    {
        "province": "中南地区",
        "city": "东莞",
        "name": "世博广场店",
        "addr": "东城区世博广场B区一楼",
        "addr_1": "沃尔玛正门",
        "worktime": "07:00-23:00",
        "has_snack": "无夜宵",
        "has_ice_cream": "",
        "all": "",
        "lat": "31.1582040000",
        "lng": "121.8146340000",
        "status": 1,
        "provin": 1
    },
    {
        "province": "中南地区",
        "city": "东莞",
        "name": "常平大道",
        "addr": "常平镇常平大道还珠沥村光头埔金佰利商业铺2号",
        "addr_1": "常平乐购超市",
        "worktime": "07:00-23:00",
        "has_snack": "无夜宵",
        "has_ice_cream": "",
        "all": "",
        "lat": "31.1582040000",
        "lng": "121.8146340000",
        "status": 1,
        "provin": 1
    },
    {
        "province": "中南地区",
        "city": "福州",
        "name": "福州北广场店",
        "addr": "晋安区火车站北广场华威客运站",
        "addr_1": "",
        "worktime": "06:30-22:00",
        "has_snack": "无夜宵",
        "has_ice_cream": "",
        "all": "",
        "lat": "31.1582040000",
        "lng": "121.8146340000",
        "status": 1,
        "provin": 1
    },
    {
        "province": "中南地区",
        "city": "福州",
        "name": "福建机场店",
        "addr": "长乐国际机场候机楼内新国内远机位候机厅",
        "addr_1": "",
        "worktime": "06:00-21:00",
        "has_snack": "无夜宵",
        "has_ice_cream": "",
        "all": "",
        "lat": "31.1582040000",
        "lng": "121.8146340000",
        "status": 1,
        "provin": 1
    },
    {
        "province": "中南地区",
        "city": "昆明",
        "name": "昆明机场店",
        "addr": "长水机场安检口内第一层",
        "addr_1": "",
        "worktime": "06:30-21:30",
        "has_snack": "无夜宵",
        "has_ice_cream": "",
        "all": "",
        "lat": "31.1582040000",
        "lng": "121.8146340000",
        "status": 1,
        "provin": 1
    },
    {
        "province": "中南地区",
        "city": "西安",
        "name": "西安咸阳机场",
        "addr": "渭城区咸阳机场1楼到达厅食尚大道",
        "addr_1": "T2航站楼一层到达1号门旁边",
        "worktime": "06:00-23:00",
        "has_snack": "无夜宵",
        "has_ice_cream": "",
        "all": "",
        "lat": "31.1582040000",
        "lng": "121.8146340000",
        "status": 1,
        "provin": 1
    },
    {
        "province": "中南地区",
        "city": "厦门",
        "name": "湾悦城店",
        "addr": "湖里区日圆二里1号湾悦城一楼",
        "addr_1": "",
        "worktime": "08:00-21:30",
        "has_snack": "无夜宵",
        "has_ice_cream": "",
        "all": "",
        "lat": "31.1582040000",
        "lng": "121.8146340000",
        "status": 1,
        "provin": 1
    },
    {
        "province": "中南地区",
        "city": "福州",
        "name": "东街",
        "addr": "鼓楼区东街59号三山大厦首层",
        "addr_1": "旗汛口车站旁",
        "worktime": "07:00-23:00",
        "has_snack": "无夜宵",
        "has_ice_cream": "",
        "all": "",
        "lat": "31.1582040000",
        "lng": "121.8146340000",
        "status": 1,
        "provin": 1
    },
    {
        "province": "中南地区",
        "city": "福州",
        "name": "元洪",
        "addr": "台江区台江路95号东百元洪购物广场首层",
        "addr_1": "百元洪购物广场二层",
        "worktime": "07:00-22:00",
        "has_snack": "无夜宵",
        "has_ice_cream": "",
        "all": "",
        "lat": "31.1582040000",
        "lng": "121.8146340000",
        "status": 1,
        "provin": 1
    },
    {
        "province": "中南地区",
        "city": "福州",
        "name": "金榕",
        "addr": "仓山区建新镇金榕路金山大润发首层",
        "addr_1": "大润发超市首层",
        "worktime": "07:00-22:00",
        "has_snack": "无夜宵",
        "has_ice_cream": "",
        "all": "",
        "lat": "31.1582040000",
        "lng": "121.8146340000",
        "status": 1,
        "provin": 1
    },
    {
        "province": "中南地区",
        "city": "郑州",
        "name": "郑州东站",
        "addr": "金水区郑州高铁站三层",
        "addr_1": "河南省郑州市金水区高铁站三楼候车厅商铺 永和大王",
        "worktime": "06:00-21:00",
        "has_snack": "无夜宵",
        "has_ice_cream": "",
        "all": "",
        "lat": "31.1582040000",
        "lng": "121.8146340000",
        "status": 1,
        "provin": 1
    },
    {
        "province": "中南地区",
        "city": "广州",
        "name": "广州东站二",
        "addr": "天河区广州火车东站综合楼一楼和谐号入口处",
        "addr_1": "和谐号入口处",
        "worktime": "06:00-22:30",
        "has_snack": "无夜宵",
        "has_ice_cream": 1,
        "all": "",
        "lat": "31.1582040000",
        "lng": "121.8146340000",
        "status": 1,
        "provin": 1
    },
    {
        "province": "中南地区",
        "city": "广州",
        "name": "华强路店",
        "addr": "华强路9号保利克洛维一楼",
        "addr_1": "",
        "worktime": "07:00-22:00",
        "has_snack": "无夜宵",
        "has_ice_cream": "",
        "all": "",
        "lat": "31.1582040000",
        "lng": "121.8146340000",
        "status": 1,
        "provin": 1
    },
    {
        "province": "中南地区",
        "city": "惠州",
        "name": "陈江",
        "addr": "惠城区陈江镇甲子路与陈江大道交汇处嘉华名都花园一楼",
        "addr_1": "",
        "worktime": "07:00-22:00",
        "has_snack": "无夜宵",
        "has_ice_cream": "",
        "all": "",
        "lat": "31.1582040000",
        "lng": "121.8146340000",
        "status": 1,
        "provin": 1
    },
    {
        "province": "中南地区",
        "city": "惠州",
        "name": "人民路",
        "addr": "惠阳区人民五路3号万联一楼",
        "addr_1": "家乐福超市出口旁",
        "worktime": "08:45-22:00",
        "has_snack": "无夜宵",
        "has_ice_cream": "",
        "all": "",
        "lat": "31.1582040000",
        "lng": "121.8146340000",
        "status": 1,
        "provin": 1
    },
    {
        "province": "中南地区",
        "city": "昆明",
        "name": "昆明机场二店",
        "addr": "长水国际机场出发厅西侧钢浮岛",
        "addr_1": "标段号B3-K-05内，F4-DL-F-08",
        "worktime": "06:00-22:00",
        "has_snack": "无夜宵",
        "has_ice_cream": "",
        "all": "",
        "lat": "31.1582040000",
        "lng": "121.8146340000",
        "status": 1,
        "provin": 1
    },
    {
        "province": "中南地区",
        "city": "龙岩",
        "name": "龙岩大道",
        "addr": "龙岩市龙岩大道与西坡路交界口大润发商场一楼",
        "addr_1": "大润发超市一层超市入口处",
        "worktime": "08:00-22:00",
        "has_snack": "无夜宵",
        "has_ice_cream": "",
        "all": "",
        "lat": "31.1582040000",
        "lng": "121.8146340000",
        "status": 1,
        "provin": 1
    },
    {
        "province": "中南地区",
        "city": "南充",
        "name": "红光路",
        "addr": "顺庆区（红光路与文峰街路口西南角）大润发超市一层26号",
        "addr_1": "顺庆区大润发超市一楼",
        "worktime": "07:00-22:00",
        "has_snack": "无夜宵",
        "has_ice_cream": "",
        "all": "",
        "lat": "31.1582040000",
        "lng": "121.8146340000",
        "status": 1,
        "provin": 1
    },
    {
        "province": "中南地区",
        "city": "泉州",
        "name": "安溪宝龙",
        "addr": "安溪县城厢镇土楼村宝龙城市广场大润发二层",
        "addr_1": "大润发超市二层超市出口处",
        "worktime": "08:30-22:00",
        "has_snack": "无夜宵",
        "has_ice_cream": "",
        "all": "",
        "lat": "31.1582040000",
        "lng": "121.8146340000",
        "status": 1,
        "provin": 1
    },
    {
        "province": "中南地区",
        "city": "泉州",
        "name": "安吉",
        "addr": "洛江区安吉路与万盛街交汇处大润发商场",
        "addr_1": "大润发超市一层超市入口处",
        "worktime": "08:00-22:00",
        "has_snack": "无夜宵",
        "has_ice_cream": "",
        "all": "",
        "lat": "31.1582040000",
        "lng": "121.8146340000",
        "status": 1,
        "provin": 1
    },
    {
        "province": "中南地区",
        "city": "深圳",
        "name": "宝安",
        "addr": "罗湖区宝安南路3063号茂源大厦首层",
        "addr_1": "西湖宾馆斜对面",
        "worktime": "07:00-22:00",
        "has_snack": "无夜宵",
        "has_ice_cream": "",
        "all": "",
        "lat": "31.1582040000",
        "lng": "121.8146340000",
        "status": 1,
        "provin": 1
    },
    {
        "province": "中南地区",
        "city": "深圳",
        "name": "万佳",
        "addr": "福田区福中路15号",
        "addr_1": "华润万佳商场旁",
        "worktime": "07:00-23:00",
        "has_snack": 1,
        "has_ice_cream": 1,
        "all": "",
        "lat": "31.1582040000",
        "lng": "121.8146340000",
        "status": 1,
        "provin": 1
    },
    {
        "province": "中南地区",
        "city": "深圳",
        "name": "长城",
        "addr": "福田区百花五路36-1号裙楼长安花园B栋裙楼首层",
        "addr_1": "通家乐商场一楼",
        "worktime": "07:00-23:00",
        "has_snack": "无夜宵",
        "has_ice_cream": "",
        "all": "",
        "lat": "31.1582040000",
        "lng": "121.8146340000",
        "status": 1,
        "provin": 1
    },
    {
        "province": "中南地区",
        "city": "深圳",
        "name": "华侨城",
        "addr": "南山区华侨城购物中心小区购物中心G-12",
        "addr_1": "沃尔玛超市后面",
        "worktime": "07:00-23:00",
        "has_snack": 1,
        "has_ice_cream": "",
        "all": "",
        "lat": "31.1582040000",
        "lng": "121.8146340000",
        "status": 1,
        "provin": 1
    },
    {
        "province": "中南地区",
        "city": "深圳",
        "name": "星河",
        "addr": "福田区民田路72号首层",
        "addr_1": "工商银行旁",
        "worktime": "07:00-22:00",
        "has_snack": 1,
        "has_ice_cream": "",
        "all": "",
        "lat": "31.1582040000",
        "lng": "121.8146340000",
        "status": 1,
        "provin": 1
    },
    {
        "province": "中南地区",
        "city": "深圳",
        "name": "益田",
        "addr": "福田区益田路6013号江苏大厦B座1层",
        "addr_1": "儿童医院旁",
        "worktime": 1,
        "has_snack": 1,
        "has_ice_cream": 1,
        "all": "是",
        "lat": "31.1582040000",
        "lng": "121.8146340000",
        "status": 1,
        "provin": 1
    },
    {
        "province": "中南地区",
        "city": "深圳",
        "name": "地王",
        "addr": "罗湖区深南东路5002号信兴广场商场LG层",
        "addr_1": "地王大厦负一层",
        "worktime": "07:00-22:00",
        "has_snack": "无夜宵",
        "has_ice_cream": "",
        "all": "",
        "lat": "31.1582040000",
        "lng": "121.8146340000",
        "status": 1,
        "provin": 1
    },
    {
        "province": "中南地区",
        "city": "深圳",
        "name": "友谊",
        "addr": "罗湖区江北路11号国际名园首层",
        "addr_1": "罗湖医院旁",
        "worktime": 1,
        "has_snack": 1,
        "has_ice_cream": 1,
        "all": "是",
        "lat": "31.1582040000",
        "lng": "121.8146340000",
        "status": 1,
        "provin": 1
    },
    {
        "province": "中南地区",
        "city": "深圳",
        "name": "景田",
        "addr": "福田区新闻路12-6号五洲星苑A座首层",
        "addr_1": "",
        "worktime": "07:00-23:00",
        "has_snack": "无夜宵",
        "has_ice_cream": "",
        "all": "",
        "lat": "31.1582040000",
        "lng": "121.8146340000",
        "status": 1,
        "provin": 1
    },
    {
        "province": "中南地区",
        "city": "深圳",
        "name": "海富",
        "addr": "罗湖区深南东路112号全季酒店首层",
        "addr_1": "妇儿远东医院旁",
        "worktime": "07:00-23:00",
        "has_snack": "无夜宵",
        "has_ice_cream": "",
        "all": "",
        "lat": "31.1582040000",
        "lng": "121.8146340000",
        "status": 1,
        "provin": 1
    },
    {
        "province": "中南地区",
        "city": "深圳",
        "name": "坂田",
        "addr": "广东省深圳市龙岗坂田街道办五和南路82号坂田五和综合市场一层D02室",
        "addr_1": "阳光湾畔首层",
        "worktime": 1,
        "has_snack": 1,
        "has_ice_cream": 1,
        "all": "是",
        "lat": "31.1582040000",
        "lng": "121.8146340000",
        "status": 1,
        "provin": 1
    },
    {
        "province": "中南地区",
        "city": "深圳",
        "name": "花好园",
        "addr": "深圳福田区滨河路南121号下沙村花好园裙楼C栋首层",
        "addr_1": "岁宝百货旁",
        "worktime": "07:00-23:00",
        "has_snack": "无夜宵",
        "has_ice_cream": 1,
        "all": "",
        "lat": "31.1582040000",
        "lng": "121.8146340000",
        "status": 1,
        "provin": 1
    },
    {
        "province": "中南地区",
        "city": "深圳",
        "name": "新保辉",
        "addr": "南山区南海大道2067号新保辉大厦辅楼集美堂商业广场首层",
        "addr_1": "",
        "worktime": "07:00-22:00",
        "has_snack": "无夜宵",
        "has_ice_cream": 1,
        "all": "",
        "lat": "31.1582040000",
        "lng": "121.8146340000",
        "status": 1,
        "provin": 1
    },
    {
        "province": "中南地区",
        "city": "深圳",
        "name": "香缤",
        "addr": "建安一路香缤广场家乐福首层",
        "addr_1": "家乐福超市首层",
        "worktime": "07:00-23:00",
        "has_snack": "无夜宵",
        "has_ice_cream": 1,
        "all": "",
        "lat": "31.1582040000",
        "lng": "121.8146340000",
        "status": 1,
        "provin": 1
    },
    {
        "province": "中南地区",
        "city": "深圳",
        "name": "兴业路",
        "addr": "宝安区西乡大道与兴业路交汇处七巧国一层",
        "addr_1": "人人乐商场一楼",
        "worktime": "07:00-22:00",
        "has_snack": "无夜宵",
        "has_ice_cream": 1,
        "all": "",
        "lat": "31.1582040000",
        "lng": "121.8146340000",
        "status": 1,
        "provin": 1
    },
    {
        "province": "中南地区",
        "city": "深圳",
        "name": "碧榕湾",
        "addr": "南山区雷圳碧榕湾海景花园东区一层",
        "addr_1": "太子山庄对面",
        "worktime": "07:00-23:00",
        "has_snack": "无夜宵",
        "has_ice_cream": 1,
        "all": "",
        "lat": "31.1582040000",
        "lng": "121.8146340000",
        "status": 1,
        "provin": 1
    },
    {
        "province": "中南地区",
        "city": "深圳",
        "name": "横岗",
        "addr": "龙岗区横岗镇六约社区六和路98号一楼",
        "addr_1": "",
        "worktime": "07:00-23:00",
        "has_snack": "无夜宵",
        "has_ice_cream": 1,
        "all": "",
        "lat": "31.1582040000",
        "lng": "121.8146340000",
        "status": 1,
        "provin": 1
    },
    {
        "province": "中南地区",
        "city": "深圳",
        "name": "创业路",
        "addr": "宝安区创业一路西城上筑花园一期商业裙楼二楼",
        "addr_1": "华润万家2楼",
        "worktime": "07:00-22:00",
        "has_snack": "无夜宵",
        "has_ice_cream": "",
        "all": "",
        "lat": "31.1582040000",
        "lng": "121.8146340000",
        "status": 1,
        "provin": 1
    },
    {
        "province": "中南地区",
        "city": "深圳",
        "name": "摩尔城",
        "addr": "龙岗区南联街道鹏达摩尔城商业中心一层",
        "addr_1": "华润万家商场旁",
        "worktime": 1,
        "has_snack": 1,
        "has_ice_cream": 1,
        "all": "是",
        "lat": "31.1582040000",
        "lng": "121.8146340000",
        "status": 1,
        "provin": 1
    },
    {
        "province": "中南地区",
        "city": "深圳",
        "name": "东海",
        "addr": "福田区东海购物广场首层",
        "addr_1": "",
        "worktime": "07:00-23:00",
        "has_snack": "无夜宵",
        "has_ice_cream": 1,
        "all": "",
        "lat": "31.1582040000",
        "lng": "121.8146340000",
        "status": 1,
        "provin": 1
    },
    {
        "province": "中南地区",
        "city": "深圳",
        "name": "锦花",
        "addr": "宝安76区电影大厦广场1楼",
        "addr_1": "人人乐商场一楼",
        "worktime": "07:00-21:30",
        "has_snack": "无夜宵",
        "has_ice_cream": "",
        "all": "",
        "lat": "31.1582040000",
        "lng": "121.8146340000",
        "status": 1,
        "provin": 1
    },
    {
        "province": "中南地区",
        "city": "深圳",
        "name": "人民南路",
        "addr": "罗湖区人民南路深房广场裙楼102A",
        "addr_1": "国贸对面",
        "worktime": 1,
        "has_snack": "无夜宵",
        "has_ice_cream": 1,
        "all": "是",
        "lat": "31.1582040000",
        "lng": "121.8146340000",
        "status": 1,
        "provin": 1
    },
    {
        "province": "中南地区",
        "city": "深圳",
        "name": "固戍",
        "addr": "宝安区宝安大道与固戍二路交汇处新天地购物广场一楼",
        "addr_1": "固戍地铁F出口",
        "worktime": "07:00-23:00",
        "has_snack": "无夜宵",
        "has_ice_cream": "",
        "all": "",
        "lat": "31.1582040000",
        "lng": "121.8146340000",
        "status": 1,
        "provin": 1
    },
    {
        "province": "中南地区",
        "city": "深圳",
        "name": "大梅沙",
        "addr": "盐田区盐葵路（大梅沙）京地酒店首层",
        "addr_1": "京地酒店首层",
        "worktime": "07:00-22:00",
        "has_snack": "无夜宵",
        "has_ice_cream": 1,
        "all": "",
        "lat": "31.1582040000",
        "lng": "121.8146340000",
        "status": 1,
        "provin": 1
    },
    {
        "province": "中南地区",
        "city": "深圳",
        "name": "华强",
        "addr": "福田区华强北路1019号华强广场负一层",
        "addr_1": "",
        "worktime": "07:00-22:00",
        "has_snack": "无夜宵",
        "has_ice_cream": 1,
        "all": "",
        "lat": "31.1582040000",
        "lng": "121.8146340000",
        "status": 1,
        "provin": 1
    },
    {
        "province": "中南地区",
        "city": "深圳",
        "name": "南湾店",
        "addr": "龙岗区樟树布社区万科公园里一期A24号",
        "addr_1": "",
        "worktime": "07:00-23:00",
        "has_snack": "无夜宵",
        "has_ice_cream": "",
        "all": "",
        "lat": "31.1582040000",
        "lng": "121.8146340000",
        "status": 1,
        "provin": 1
    },
    {
        "province": "中南地区",
        "city": "深圳",
        "name": "龙翔大道",
        "addr": "龙岗区龙翔大道8020号华润万家一层",
        "addr_1": "华润万家一层",
        "worktime": "07:00-22:00",
        "has_snack": "无夜宵",
        "has_ice_cream": "",
        "all": "",
        "lat": "31.1582040000",
        "lng": "121.8146340000",
        "status": 1,
        "provin": 1
    },
    {
        "province": "中南地区",
        "city": "深圳",
        "name": "高新中四道",
        "addr": "南山区高新中四道阳光海景花园裙楼一层",
        "addr_1": "阳光海景花园",
        "worktime": "07:00-21:00",
        "has_snack": "无夜宵",
        "has_ice_cream": 1,
        "all": "",
        "lat": "31.1582040000",
        "lng": "121.8146340000",
        "status": 1,
        "provin": 1
    },
    {
        "province": "中南地区",
        "city": "深圳",
        "name": "宝安北路店",
        "addr": "罗湖区笋岗街道宝安北路宝富楼一层",
        "addr_1": "罗湖人才市场公交站台正后面",
        "worktime": "07:00-21:00",
        "has_snack": "无夜宵",
        "has_ice_cream": "",
        "all": "",
        "lat": "31.1582040000",
        "lng": "121.8146340000",
        "status": 1,
        "provin": 1
    },
    {
        "province": "中南地区",
        "city": "深圳",
        "name": "皇岗村店",
        "addr": "福田区皇岗村上围一村广场壹号楼首层",
        "addr_1": "",
        "worktime": 1,
        "has_snack": 1,
        "has_ice_cream": "",
        "all": "是",
        "lat": "31.1582040000",
        "lng": "121.8146340000",
        "status": 1,
        "provin": 1
    },
    {
        "province": "中南地区",
        "city": "深圳",
        "name": "莲花路店",
        "addr": "福田区莲花街道莲花路1120号北京大学深圳医院外科住院楼负一层",
        "addr_1": "",
        "worktime": "07:00-21:00",
        "has_snack": "无夜宵",
        "has_ice_cream": "",
        "all": "",
        "lat": "31.1582040000",
        "lng": "121.8146340000",
        "status": 1,
        "provin": 1
    },
    {
        "province": "中南地区",
        "city": "深圳",
        "name": "益田站店",
        "addr": "福田区福保街道福强路益田村益田大厦负一层",
        "addr_1": "益田地铁站A出口",
        "worktime": "07:00-22:00",
        "has_snack": "无夜宵",
        "has_ice_cream": "",
        "all": "",
        "lat": "31.1582040000",
        "lng": "121.8146340000",
        "status": 1,
        "provin": 1
    },
    {
        "province": "中南地区",
        "city": "武汉",
        "name": "江汉",
        "addr": "江汉区江汉路104号",
        "addr_1": "步行街中心百货商场正对面",
        "worktime": "07:00-23:00",
        "has_snack": "无夜宵",
        "has_ice_cream": 1,
        "all": "",
        "lat": "31.1582040000",
        "lng": "121.8146340000",
        "status": 1,
        "provin": 1
    },
    {
        "province": "中南地区",
        "city": "武汉",
        "name": "中北",
        "addr": "武昌区中北路1号家乐福一层",
        "addr_1": "洪山家乐福超市一楼内",
        "worktime": "08:00-22:00",
        "has_snack": "无夜宵",
        "has_ice_cream": "",
        "all": "",
        "lat": "31.1582040000",
        "lng": "121.8146340000",
        "status": 1,
        "provin": 1
    },
    {
        "province": "中南地区",
        "city": "武汉",
        "name": "花桥",
        "addr": "江岸区建设大道937号家乐福一层",
        "addr_1": "家乐福建设店一楼",
        "worktime": "08:00-21:30",
        "has_snack": "无夜宵",
        "has_ice_cream": "",
        "all": "",
        "lat": "31.1582040000",
        "lng": "121.8146340000",
        "status": 1,
        "provin": 1
    },
    {
        "province": "中南地区",
        "city": "武汉",
        "name": "武昌站",
        "addr": "武昌火车站底下商城A区",
        "addr_1": "武昌火车站西出站正对面",
        "worktime": "05:30-23:30",
        "has_snack": 1,
        "has_ice_cream": 1,
        "all": "",
        "lat": "31.1582040000",
        "lng": "121.8146340000",
        "status": 1,
        "provin": 1
    },
    {
        "province": "中南地区",
        "city": "武汉",
        "name": "武昌站二",
        "addr": "武昌火车站公交综合体二层",
        "addr_1": "武昌火车站售票厅左侧",
        "worktime": "07:00-22:00",
        "has_snack": 1,
        "has_ice_cream": "",
        "all": "",
        "lat": "31.1582040000",
        "lng": "121.8146340000",
        "status": 1,
        "provin": 1
    },
    {
        "province": "中南地区",
        "city": "武汉",
        "name": "南湖广场",
        "addr": "武昌区南湖花园丁字桥南路518号沃尔玛二层",
        "addr_1": "沃尔玛超市旁",
        "worktime": "07:00-22:00",
        "has_snack": "无夜宵",
        "has_ice_cream": "",
        "all": "",
        "lat": "31.1582040000",
        "lng": "121.8146340000",
        "status": 1,
        "provin": 1
    },
    {
        "province": "中南地区",
        "city": "武汉",
        "name": "汉口站",
        "addr": "汉口火车站西侧台湾风情广场一层",
        "addr_1": "汉口火车站出站口左侧",
        "worktime": 1,
        "has_snack": 1,
        "has_ice_cream": "",
        "all": "是",
        "lat": "31.1582040000",
        "lng": "121.8146340000",
        "status": 1,
        "provin": 1
    },
    {
        "province": "中南地区",
        "city": "武汉",
        "name": "香港路",
        "addr": "江岸区香港路173-175号一层",
        "addr_1": "儿童医院斜对面",
        "worktime": "07:00-23:00",
        "has_snack": "无夜宵",
        "has_ice_cream": "",
        "all": "",
        "lat": "31.1582040000",
        "lng": "121.8146340000",
        "status": 1,
        "provin": 1
    },
    {
        "province": "中南地区",
        "city": "武汉",
        "name": "珞狮路",
        "addr": "洪山区珞狮北路129号一层",
        "addr_1": "新世界商场左侧",
        "worktime": "07:00-23:00",
        "has_snack": "无夜宵",
        "has_ice_cream": "",
        "all": "",
        "lat": "31.1582040000",
        "lng": "121.8146340000",
        "status": 1,
        "provin": 1
    },
    {
        "province": "中南地区",
        "city": "武汉",
        "name": "关山大道",
        "addr": "东湖开发区关山一路以东光谷天地F3区",
        "addr_1": "光谷天地沃尔玛超市出口处",
        "worktime": "07:00-22:00",
        "has_snack": "无夜宵",
        "has_ice_cream": "",
        "all": "",
        "lat": "31.1582040000",
        "lng": "121.8146340000",
        "status": 1,
        "provin": 1
    },
    {
        "province": "中南地区",
        "city": "武汉",
        "name": "京汉大道",
        "addr": "江汉区江汉路257号大润发一层",
        "addr_1": "大润发超市一楼",
        "worktime": "07:30-22:00",
        "has_snack": "无夜宵",
        "has_ice_cream": "",
        "all": "",
        "lat": "31.1582040000",
        "lng": "121.8146340000",
        "status": 1,
        "provin": 1
    },
    {
        "province": "中南地区",
        "city": "武汉",
        "name": "新佳丽广场",
        "addr": "江汉区中山大道818物业一层",
        "addr_1": "新佳丽广场一楼背面",
        "worktime": "07:00-23:00",
        "has_snack": "无夜宵",
        "has_ice_cream": 1,
        "all": "",
        "lat": "31.1582040000",
        "lng": "121.8146340000",
        "status": 1,
        "provin": 1
    },
    {
        "province": "中南地区",
        "city": "武汉",
        "name": "后湖大道店",
        "addr": "江汉区后湖大道与建设大道延长线交汇处汉口城市广场二期C",
        "addr_1": "家乐福一楼下电梯处",
        "worktime": "07:00-22:00",
        "has_snack": "无夜宵",
        "has_ice_cream": "",
        "all": "",
        "lat": "31.1582040000",
        "lng": "121.8146340000",
        "status": 1,
        "provin": 1
    },
    {
        "province": "中南地区",
        "city": "武汉",
        "name": "汉口火车站二店",
        "addr": "江汉区汉口火车站广场西侧欧亚达国际广场商铺一层",
        "addr_1": "欧亚达国际广场侧面商铺一层",
        "worktime": "06:30-23:00",
        "has_snack": "无夜宵",
        "has_ice_cream": "",
        "all": "",
        "lat": "31.1582040000",
        "lng": "121.8146340000",
        "status": 1,
        "provin": 1
    },
    {
        "province": "中南地区",
        "city": "孝感",
        "name": "槐荫大道",
        "addr": "孝南区槐荫大道东段193号槐荫大道东与城东路交汇处西北角大润发一层",
        "addr_1": "大润发超市一楼",
        "worktime": "07:00-22:00",
        "has_snack": "无夜宵",
        "has_ice_cream": "",
        "all": "",
        "lat": "31.1582040000",
        "lng": "121.8146340000",
        "status": 1,
        "provin": 1
    },
    {
        "province": "中南地区",
        "city": "宜昌",
        "name": "胜利一路",
        "addr": "沿江大道万达广场C区1-2层",
        "addr_1": "",
        "worktime": "06:30-22:00",
        "has_snack": "无夜宵",
        "has_ice_cream": "",
        "all": "",
        "lat": "31.1582040000",
        "lng": "121.8146340000",
        "status": 1,
        "provin": 1
    },
    {
        "province": "中南地区",
        "city": "珠海",
        "name": "吉大",
        "addr": "吉大景山路228号国贸购物广场一层",
        "addr_1": "",
        "worktime": "07:00-22:00",
        "has_snack": "无夜宵",
        "has_ice_cream": 1,
        "all": "",
        "lat": "31.1582040000",
        "lng": "121.8146340000",
        "status": 1,
        "provin": 1
    },
    {
        "province": "中南地区",
        "city": "珠海",
        "name": "明珠南路",
        "addr": "香洲区前山明珠商业广场一层",
        "addr_1": "",
        "worktime": "07:00-22:00",
        "has_snack": "无夜宵",
        "has_ice_cream": "",
        "all": "",
        "lat": "31.1582040000",
        "lng": "121.8146340000",
        "status": 1,
        "provin": 1
    },
    {
        "province": "中南地区",
        "city": "郑州",
        "name": "新郑机场店",
        "addr": "新郑国际机场T2航站楼3层",
        "addr_1": "",
        "worktime": "06:30-23:00",
        "has_snack": "无夜宵",
        "has_ice_cream": 1,
        "all": "",
        "lat": "31.1582040000",
        "lng": "121.8146340000",
        "status": 1,
        "provin": 1
    },
    {
        "province": "华东地区",
        "city": "上海",
        "name": "蕴川路",
        "addr": "宝山区蕴川路1555号北上海一层",
        "addr_1": "",
        "worktime": "08:00-20:00",
        "has_snack": "无夜宵",
        "has_ice_cream": "",
        "all": "",
        "lat": "31.1582040000",
        "lng": "121.8146340000",
        "status": 1,
        "provin": 1
    },
    {
        "province": "中南地区",
        "city": "西宁",
        "name": "新宁路店",
        "addr": "新宁广场客运站旁",
        "addr_1": "",
        "worktime": "06:30-22:30",
        "has_snack": "无夜宵",
        "has_ice_cream": "",
        "all": "",
        "lat": "31.1582040000",
        "lng": "121.8146340000",
        "status": 1,
        "provin": 1
    },
    {
        "province": "华东地区",
        "city": "南通",
        "name": "长江南路店",
        "addr": "海门市中南锦城14号楼",
        "addr_1": "",
        "worktime": "06:00-22:00",
        "has_snack": "无夜宵",
        "has_ice_cream": "",
        "all": "",
        "lat": "31.1582040000",
        "lng": "121.8146340000",
        "status": 1,
        "provin": 1
    },
    {
        "province": "华东地区",
        "city": "天长",
        "name": "天康大道",
        "addr": "天康大道天发广场德克士餐厅",
        "addr_1": "",
        "worktime": "06:30-22:00",
        "has_snack": 1,
        "has_ice_cream": "",
        "all": "",
        "lat": "31.1582040000",
        "lng": "121.8146340000",
        "status": 1,
        "provin": 1
    },
    {
        "province": "华东地区",
        "city": "南京",
        "name": "凤凰东街",
        "addr": "鼓楼区凤凰东街150号清凉门大街购物广场一层",
        "addr_1": "",
        "worktime": "06:00-22:00",
        "has_snack": "无夜宵",
        "has_ice_cream": "",
        "all": "",
        "lat": "31.1582040000",
        "lng": "121.8146340000",
        "status": 1,
        "provin": 1
    },
    {
        "province": "华东地区",
        "city": "苏州",
        "name": "苏州高铁北二店",
        "addr": "相城区苏州北站",
        "addr_1": "",
        "worktime": "07:00-21:00",
        "has_snack": "无夜宵",
        "has_ice_cream": 1,
        "all": "",
        "lat": "31.1582040000",
        "lng": "121.8146340000",
        "status": 1,
        "provin": 1
    },
    {
        "province": "中南地区",
        "city": "兰州",
        "name": "兰州西站",
        "addr": "七里河区西客站东夹层D区",
        "addr_1": "",
        "worktime": "06:30-22:30",
        "has_snack": 1,
        "has_ice_cream": "",
        "all": "",
        "lat": "31.1582040000",
        "lng": "121.8146340000",
        "status": 1,
        "provin": 1
    },
    {
        "province": "华北地区",
        "city": "南开",
        "name": "三马路店",
        "addr": "南开区太极园底商",
        "addr_1": "",
        "worktime": "06:30-22:00",
        "has_snack": "无夜宵",
        "has_ice_cream": "",
        "all": "",
        "lat": "31.1582040000",
        "lng": "121.8146340000",
        "status": 1,
        "provin": 1
    },
    {
        "province": "华北地区",
        "city": "北京",
        "name": "北苑",
        "addr": "北苑路42号卜蜂莲花一层",
        "addr_1": "",
        "worktime": "06:30-22:00",
        "has_snack": "无夜宵",
        "has_ice_cream": 1,
        "all": "",
        "lat": "31.1582040000",
        "lng": "121.8146340000",
        "status": 1,
        "provin": 1
    },
    {
        "province": "华东地区",
        "city": "扬州",
        "name": "扬州正谊北店",
        "addr": "江都区境内宁通高速公路正谊服务区北区一层108室",
        "addr_1": "",
        "worktime": "08:00-21:00",
        "has_snack": "无夜宵",
        "has_ice_cream": "",
        "all": "",
        "lat": "31.1582040000",
        "lng": "121.8146340000",
        "status": 1,
        "provin": 1
    },
    {
        "province": "华东地区",
        "city": "扬州",
        "name": "扬州正谊南店",
        "addr": "江都区境内宁通高速的正谊服务区南区一层",
        "addr_1": "",
        "worktime": "08:00-21:00",
        "has_snack": "无夜宵",
        "has_ice_cream": "",
        "all": "",
        "lat": "31.1582040000",
        "lng": "121.8146340000",
        "status": 1,
        "provin": 1
    },
    {
        "province": "华东地区",
        "city": "无锡",
        "name": "南广场店",
        "addr": "车站路1号无锡火车站WX-1F-03号",
        "addr_1": "",
        "worktime": "06:00-22:00",
        "has_snack": "无夜宵",
        "has_ice_cream": "",
        "all": "",
        "lat": "31.1582040000",
        "lng": "121.8146340000",
        "status": 1,
        "provin": 1
    },
    {
        "province": "中南地区",
        "city": "广州",
        "name": "广州白云机场T2",
        "addr": "白云机场T2航站楼主楼T24D05",
        "addr_1": "",
        "worktime": "06:30-21:00",
        "has_snack": "无夜宵",
        "has_ice_cream": "",
        "all": "",
        "lat": "31.1582040000",
        "lng": "121.8146340000",
        "status": 1,
        "provin": 1
    },
    {
        "province": "华东地区",
        "city": "南京",
        "name": "红山南路店",
        "addr": "鼓楼区红山南路89号融创精彩天地一楼",
        "addr_1": "",
        "worktime": "07:00-23:00",
        "has_snack": "无夜宵",
        "has_ice_cream": "",
        "all": "",
        "lat": "31.1582040000",
        "lng": "121.8146340000",
        "status": 1,
        "provin": 1
    }

]